Geo_Code,CSD_Name,CD_Name,CSD_type,Lat,Lon,Median value of dwellings ($),Median monthly shelter costs for owned dwellings ($),Median monthly shelter costs for rented dwellings ($),% of owner households spending 30% or more of household total income on shelter costs,% of tenant households spending 30% or more of household total income on shelter costs, % of tenant households in subsidized housing,"Car, truck or van - total",Public transit,Walked,Bicycle,Other methods,Median commuting duration,0 to 1 bedroom,2 bedrooms,3 bedrooms,4 or more bedrooms,Owner,Renter,Band housing,Median after-tax household income,"Household total income Under $5,000","Household total income $5,000 to $9,999","Household total income $10,000 to $14,999","Household total income $15,000 to $19,999","Household total income $20,000 to $29,999","Household total income $30,000 to $39,999","Household total income $40,000 to $49,999","Household total income $50,000 to $59,999","Household total income $60,000 to $79,999","Household total income $80,000 to $99,999","Household total income $100,000 to $124,999","Household total income $125,000 to $149,999","Household total income $150,000 and over",Private households Median household total income
5901003,Elkford,East Kootenay,District municipality,50.06202327,-114.8769039,270091,793,872,9.1,15.2,0,830,440,30,0,0,30,40,255,325,370,830,165,0,88369,0,0,15,0,80,20,35,20,65,135,240,145,200,110546
5901006,Sparwood,East Kootenay,District municipality,49.7589181,-114.7975361,274984,499,743,6.1,39.3,9.5,1560,170,150,0,10,10.7,150,235,680,520,1170,420,0,71791,35,20,95,75,75,65,150,80,140,160,225,135,335,85778
5901012,Fernie,East Kootenay,City,49.5049447,-115.0574664,424185,1179,735,21.8,34.6,17.9,1855,80,315,130,0,10.3,230,405,730,625,1455,530,0,69924,90,45,30,60,170,175,130,105,180,315,285,145,255,80358
5901022,Cranbrook,East Kootenay,City,49.53797084,-115.7686883,279633,940,744,19.1,48.4,21.2,7360,100,945,90,145,10.2,455,2420,2580,2685,6300,1840,0,53162,255,125,285,505,755,685,760,825,1335,925,785,455,445,57700
5901028,Kimberley,East Kootenay,City,49.66786367,-115.9827769,276035,792,751,16.4,45.7,17.5,2245,60,280,60,85,15.7,285,745,1185,725,2260,685,0,51592,45,30,90,130,300,390,325,265,455,415,335,95,70,57940
5901035,East Kootenay C,East Kootenay,Regional district electoral area,49.50511767,-115.5924456,400686,589,697,11.4,18.4,0,2585,55,45,0,0,15.1,85,400,945,840,2015,240,0,68038,65,20,20,80,70,170,215,180,290,390,330,145,290,80663
5901039,Invermere,East Kootenay,District municipality,50.49987674,-116.0357588,399764,1081,1099,15.6,39.2,24.3,1065,20,170,0,0,10.4,125,275,385,400,810,375,0,60761,0,0,0,60,130,125,60,115,145,140,155,95,120,70917
5901046,East Kootenay F,East Kootenay,Regional district electoral area,50.32227242,-115.7995435,551706,752,803,24.1,8.6,0,1045,0,95,0,25,11,90,165,425,390,890,175,0,66849,0,0,0,0,60,60,100,130,200,150,175,75,95,74207
5901801,Tobacco Plains 2,East Kootenay,Indian reserve,49.04705492,-115.101005,0,0,0,Null,Null,0,25,0,0,0,0,10.4,0,0,0,10,15,0,10,Null,Null,Null,Null,Null,Null,Null,Null,Null,Null,Null,Null,Null,Null,Null
5901803,Kootenay 1,East Kootenay,Indian reserve,49.63643242,-115.7338328,Null,Null,Null,Null,Null,Null,35,0,0,0,0,17.7,0,10,10,15,25,0,0,Null,Null,Null,Null,Null,Null,Null,Null,Null,Null,Null,Null,Null,Null,Null
5901804,Columbia Lake 3,East Kootenay,Indian reserve,50.41327989,-115.9101037,0,0,0,Null,Null,0,60,0,0,0,0,15.7,0,10,25,15,40,0,15,Null,Null,Null,Null,Null,Null,Null,Null,Null,Null,Null,Null,Null,Null,Null
5901806,Shuswap,East Kootenay,Indian reserve,50.53726316,-116.0202544,0,0,0,0,0,0,120,0,15,0,0,10.8,0,45,45,30,85,30,0,45115,Null,Null,Null,Null,Null,Null,Null,10,Null,Null,Null,Null,Null,47902
5903004,Creston,Central Kootenay,Town,49.10573447,-116.5143528,269104,493,756,11.7,59.5,30.2,1580,0,345,85,0,6,340,910,720,495,1880,580,0,41833,60,20,70,365,330,275,240,170,415,175,205,100,35,46077
5903013,Central Kootenay B,Central Kootenay,Regional district electoral area,49.22966143,-116.3065355,348241,417,604,12.8,42.5,0,1150,0,75,15,0,10.8,130,540,650,455,1575,205,0,46723,45,0,50,110,220,305,75,110,220,145,230,65,125,50513
5903015,Nelson,Central Kootenay,City,49.48024304,-117.3663185,349879,717,801,20.7,47.1,15.8,2740,180,1315,170,105,10.8,850,1230,1550,1000,2920,1710,0,43874,105,85,240,280,605,565,485,310,655,455,320,175,335,48077
5903023,Kaslo,Central Kootenay,Village,49.90950038,-116.9101037,199907,348,484,24.2,51.9,61.5,175,0,65,0,0,10,110,130,145,90,335,130,0,35072,0,0,0,0,90,95,40,20,35,15,75,0,0,38451
5903032,New Denver,Central Kootenay,Village,49.98925166,-117.3768812,299055,1000,574,19,0,0,105,0,30,0,0,10.6,0,120,70,30,210,25,0,42852,Null,Null,Null,Null,Null,Null,Null,0,Null,Null,Null,Null,Null,43124
5903041,Central Kootenay E,Central Kootenay,Regional district electoral area,49.53310199,-117.1226474,349874,467,825,21.7,46.7,10.9,1475,0,160,0,20,15.8,105,695,565,330,1465,230,0,43463,100,0,135,65,180,230,195,150,180,215,110,55,65,46112
5903043,Central Kootenay F,Central Kootenay,Regional district electoral area,49.58330357,-117.3303334,401238,663,866,24.3,26.5,0,1730,40,0,0,35,17.4,135,365,695,485,1510,165,0,59881,0,35,20,60,135,135,265,100,210,215,175,150,165,66893
5903045,Castlegar,Central Kootenay,City,49.30122989,-117.6718981,274954,866,632,15.2,42.7,16.1,2890,55,315,35,35,11,235,700,1305,1105,2630,720,0,49348,50,55,95,290,345,445,260,235,425,380,335,170,255,54279
5903050,Nakusp,Central Kootenay,Village,50.24995904,-117.7975537,250237,521,631,21.6,25.6,20.9,380,0,105,0,0,10.2,95,215,190,225,515,210,0,37235,0,0,55,45,155,110,90,45,95,55,30,0,25,39148
5903052,Central Kootenay H,Central Kootenay,Regional district electoral area,49.85292045,-117.5315863,300121,507,524,28.9,48.3,5.2,1470,50,40,0,30,25.6,290,620,775,325,1725,290,0,41275,95,150,90,250,145,210,210,175,325,210,95,35,0,41420
5903058,Central Kootenay J,Central Kootenay,Regional district electoral area,49.43319298,-117.9637721,297373,557,1041,9.7,41.7,0,1365,0,0,0,0,15.7,75,405,295,425,1085,125,0,61318,10,0,0,40,45,145,135,125,165,210,140,95,85,73289
5903807,Creston 1,Central Kootenay,Indian reserve,49.0571249,-116.5292701,0,0,0,Null,Null,0,25,0,0,0,0,5.5,0,0,20,10,15,0,25,Null,Null,Null,Null,Null,Null,Null,Null,Null,Null,Null,Null,Null,Null,Null
5905005,Fruitvale,Kootenay Boundary,Village,49.11079092,-117.5506685,240278,558,528,9.6,50,15.6,705,0,35,0,0,15.9,95,160,245,345,680,155,0,60017,45,20,70,35,80,35,50,25,140,55,130,70,75,63666
5905009,Montrose,Kootenay Boundary,Village,49.07794579,-117.5905652,269836,452,0,12.3,0,0,435,0,0,0,0,12.3,40,30,185,180,405,0,0,67988,0,0,0,0,30,20,25,30,70,60,50,35,65,78435
5905014,Trail,Kootenay Boundary,City,49.08953303,-117.7131748,200551,576,608,16.1,53.6,16.6,2545,40,310,0,10,10.5,560,1065,1320,735,2770,905,0,43719,35,130,250,235,405,530,285,280,455,390,315,150,205,48085
5905018,Warfield,Kootenay Boundary,Village,49.09459693,-117.7467284,250319,652,654,8.8,18.5,0,660,65,80,0,0,10.7,50,170,350,200,630,140,0,58459,0,20,0,0,80,35,65,65,125,140,60,65,65,67958
5905023,Rossland,Kootenay Boundary,City,49.12178638,-117.8464516,299936,754,701,17,40,0,1375,15,155,0,70,12.1,120,210,725,400,1205,255,0,64081,45,0,20,65,135,145,115,80,170,155,165,160,185,72610
5905026,Kootenay Boundary A,Kootenay Boundary,Regional district electoral area,49.10031026,-117.5828677,299657,668,662,10.1,27.8,0,680,0,40,0,10,19,0,105,315,290,625,95,0,63685,0,0,0,65,30,65,25,65,70,150,55,85,65,77644
5905032,Grand Forks,Kootenay Boundary,City,49.03066527,-118.4466388,240503,570,720,18.9,54.3,12.2,970,0,205,80,0,7.8,95,600,745,400,1430,405,0,40219,65,35,35,265,275,205,135,140,315,150,95,45,80,42380
5905037,Midway,Kootenay Boundary,Village,49.00887697,-118.7990369,219892,456,683,34,0,0,120,0,0,0,0,10.7,40,95,90,85,250,55,0,36354,25,0,30,0,45,40,35,50,0,30,0,0,0,37122
5907005,Osoyoos,Okanagan-Similkameen,Town,49.02630628,-119.4705437,375982,484,776,17.6,53.7,0,1160,20,260,0,35,10.7,105,765,870,515,1845,420,0,44516,45,40,45,130,260,350,285,220,340,195,120,145,80,49560
5907024,Princeton,Okanagan-Similkameen,Town,49.46354165,-120.5070402,250439,418,552,10.9,62.7,0,780,0,90,0,25,5.9,355,305,430,295,1010,375,0,39323,20,0,15,300,195,155,80,105,170,90,75,60,110,39406
5907035,Summerland,Okanagan-Similkameen,District municipality,49.61491997,-119.7044434,399691,541,907,18.6,44.5,12.9,3765,15,360,65,70,15.7,470,1555,1435,1295,3975,780,0,51445,45,85,155,330,550,630,405,355,565,605,380,240,395,56380
5907041,Penticton,Okanagan-Similkameen,City,49.49557397,-119.569818,349192,738,826,19.9,54.4,18.5,10655,160,1660,470,340,10.4,2635,5325,3940,3330,9730,5500,0,40994,465,335,475,1485,2100,1940,1790,1330,1900,1280,900,580,640,43998
5907047,Okanagan-Similkameen D,Okanagan-Similkameen,Regional district electoral area,49.37295218,-119.5347071,399428,694,742,19.9,40,16.1,2350,0,115,30,80,15.8,50,745,950,690,2270,165,0,52916,55,0,0,85,445,325,130,135,435,195,175,175,260,61773
5907051,Okanagan-Similkameen F,Okanagan-Similkameen,Regional district electoral area,49.61502629,-119.8728454,518734,982,1009,16.7,30,0,870,0,0,0,20,11,30,80,230,435,715,50,0,71520,0,0,0,20,70,85,60,35,100,80,75,75,155,80408
5907801,Lower Similkameen 2,Okanagan-Similkameen,Indian reserve,49.1180136,-119.7383549,0,0,0,Null,Null,0,15,0,0,0,0,17,0,0,0,10,10,0,0,Null,Null,Null,Null,Null,Null,Null,Null,Null,Null,Null,Null,Null,Null,Null
5907802,Osoyoos 1,Okanagan-Similkameen,Indian reserve,49.15056999,-119.4898125,0,0,0,0,0,0,205,0,0,0,0,10.7,10,130,95,35,245,20,10,36668,10,0,15,20,65,35,40,25,35,10,0,15,0,37405
5907803,Penticton 1,Okanagan-Similkameen,Indian reserve,49.47735232,-119.6847939,0,0,0,0,0,0,370,10,20,0,0,10.7,60,480,140,90,685,55,25,35427,25,25,30,50,150,155,75,80,85,50,20,0,15,36887
5907805,Chopaka 7 & 8,Okanagan-Similkameen,Indian reserve,49.03453818,-119.7207842,0,0,0,Null,Null,0,20,0,0,0,0,20.7,0,0,15,10,20,0,0,Null,Null,Null,Null,Null,Null,Null,Null,Null,Null,Null,Null,Null,Null,Null
5907807,Chuchuwayha 2,Okanagan-Similkameen,Indian reserve,49.35301237,-120.0780094,0,0,0,Null,Null,0,20,0,10,0,0,10.5,0,10,10,10,10,0,15,Null,Null,Null,Null,Null,Null,Null,Null,Null,Null,Null,Null,Null,Null,Null
5907809,Ashnola 10,Okanagan-Similkameen,Indian reserve,49.24014901,-120.0214755,0,0,0,Null,Null,0,10,0,0,0,0,30.5,0,0,0,10,15,0,10,Null,Null,Null,Null,Null,Null,Null,Null,Null,Null,Null,Null,Null,Null,Null
5909009,Hope,Fraser Valley,District municipality,49.38000687,-121.4546514,285658,485,701,18,50,6.5,1820,0,230,30,35,10.5,240,725,910,755,2015,620,0,41421,65,105,125,195,360,345,255,340,270,270,110,85,115,44138
5909014,Fraser Valley A,Fraser Valley,Regional district electoral area,49.91430291,-121.6861602,110048,294,649,10,43.8,37.5,110,0,10,0,0,6.2,0,90,40,40,145,80,0,39172,Null,Null,Null,Null,Null,Null,Null,0,Null,Null,Null,Null,Null,41220
5909020,Chilliwack,Fraser Valley,City,49.1425914,-121.9294712,341274,1064,800,22.4,51.1,13.7,30410,475,1445,585,490,15.7,3300,7870,10150,9140,22760,7695,0,51584,880,445,1095,2130,2820,3335,2780,2565,4665,3565,2760,1605,1820,56513
5909027,Harrison Hot Springs,Fraser Valley,Village,49.29755341,-121.7839892,349743,966,832,25.7,52.4,0,355,0,50,0,0,20.1,30,220,300,115,560,100,0,48735,0,0,0,40,60,80,100,60,85,70,65,45,20,50670
5909032,Kent,Fraser Valley,District municipality,49.28164106,-121.7801657,324838,838,650,21.2,67.1,29,1715,0,160,30,30,15.5,190,415,890,550,1690,365,0,51189,100,90,100,145,185,170,175,115,380,250,165,80,100,57348
5909034,Fraser Valley D,Fraser Valley,Regional district electoral area,49.22155481,-121.6325769,429930,565,758,22.8,0,0,560,0,0,0,0,20.6,25,55,220,175,455,20,0,61606,0,0,0,0,0,100,10,60,100,75,75,0,15,71879
5909036,Fraser Valley E,Fraser Valley,Regional district electoral area,49.0682349,-121.6542366,376164,478,1002,24.3,25,0,1380,0,0,0,20,21,80,505,515,330,1265,160,0,48386,60,40,0,70,180,165,150,140,245,130,110,40,105,53045
5909052,Abbotsford,Fraser Valley,City,49.06916685,-122.2853586,393600,1204,801,24,39.2,9.4,54935,1135,1605,500,1055,15.9,5470,13180,11490,16310,34450,12005,0,56876,1195,680,1450,2230,3940,4630,4475,3600,6680,5380,4900,2860,4435,62350
5909056,Mission,Fraser Valley,District municipality,49.23191914,-122.3431669,399607,1453,751,30.5,44.1,16,15085,785,395,80,340,26,885,2180,4700,5015,10260,2530,0,59412,215,270,370,650,1130,1145,1015,925,1890,1885,1430,950,910,65411
5909060,Fraser Valley F,Fraser Valley,Regional district electoral area,49.57109594,-122.4816841,500500,653,1770,14.6,14.3,0,460,70,0,0,20,35.6,40,150,245,75,440,70,0,64233,0,0,0,20,20,30,35,60,215,55,30,10,0,73391
5909804,Chawathil 4,Fraser Valley,Indian reserve,49.37370817,-121.5427844,0,0,0,Null,Null,0,30,0,0,0,0,20.4,0,0,25,20,30,10,10,Null,Null,Null,Null,Null,Null,Null,Null,Null,Null,Null,Null,Null,Null,Null
5909807,Ohamil 1,Fraser Valley,Indian reserve,49.33843237,-121.6060972,0,0,0,Null,Null,0,0,0,10,0,0,10.5,0,10,10,0,10,0,10,Null,Null,Null,Null,Null,Null,Null,Null,Null,Null,Null,Null,Null,Null,Null
5909812,Schkam 2,Fraser Valley,Indian reserve,49.39618458,-121.4563837,0,0,0,Null,Null,0,20,0,0,0,0,10.7,0,10,20,10,10,0,25,Null,Null,Null,Null,Null,Null,Null,Null,Null,Null,Null,Null,Null,Null,Null
5909819,Kahmoose 4,Fraser Valley,Indian reserve,49.96225713,-121.4850422,0,0,0,Null,Null,0,20,0,0,0,0,20.1,0,10,10,15,10,0,25,Null,Null,Null,Null,Null,Null,Null,Null,Null,Null,Null,Null,Null,Null,Null
5909821,Kwawkwawapilt 6,Fraser Valley,Indian reserve,49.1638589,-121.9797089,0,0,0,0,0,0,50,0,0,0,0,10.1,0,155,25,0,195,0,0,33250,Null,Null,Null,Null,Null,Null,Null,25,Null,Null,Null,Null,Null,35093
5909824,Skwah 4,Fraser Valley,Indian reserve,49.17553852,-121.9770677,0,0,0,Null,Null,0,50,0,0,0,0,15.5,10,15,20,15,50,0,0,Null,Null,Null,Null,Null,Null,Null,Null,Null,Null,Null,Null,Null,Null,Null
5909826,Skway 5,Fraser Valley,Indian reserve,49.17023119,-121.9954436,0,0,0,Null,Null,0,15,0,0,0,0,15.9,0,10,10,15,15,0,10,Null,Null,Null,Null,Null,Null,Null,Null,Null,Null,Null,Null,Null,Null,Null
5909827,Soowahlie 14,Fraser Valley,Indian reserve,49.08375339,-121.9567854,0,0,0,Null,Null,0,40,0,0,0,0,20.6,0,10,35,15,35,10,15,Null,Null,Null,Null,Null,Null,Null,Null,Null,Null,Null,Null,Null,Null,Null
5909830,Tzeachten 13,Fraser Valley,Indian reserve,49.11318338,-121.9454186,0,0,0,0,0,0,245,0,0,0,10,15.8,40,445,135,55,640,35,10,43799,30,15,10,55,55,120,110,70,135,45,25,0,10,44834
5909832,Seabird Island,Fraser Valley,Indian reserve,49.27561837,-121.7103923,0,0,0,0,0,0,155,0,15,0,10,5.8,25,55,70,50,80,35,90,33806,Null,Null,Null,Null,Null,Null,Null,15,Null,Null,Null,Null,Null,33806
5909837,Cheam 1,Fraser Valley,Indian reserve,49.19722226,-121.7691781,0,0,0,Null,Null,0,40,0,10,0,0,11,0,15,20,25,35,15,15,Null,Null,Null,Null,Null,Null,Null,Null,Null,Null,Null,Null,Null,Null,Null
5909839,Chehalis 5,Fraser Valley,Indian reserve,49.29512325,-121.9111652,0,0,0,0,0,0,165,0,10,0,0,8.1,10,25,90,60,150,25,15,38904,Null,Null,Null,Null,Null,Null,Null,20,Null,Null,Null,Null,Null,39160
5909841,Stullawheets 8,Fraser Valley,Indian reserve,49.47094236,-121.4256676,0,0,0,Null,Null,0,10,0,0,0,0,15.3,0,10,10,0,15,0,10,Null,Null,Null,Null,Null,Null,Null,Null,Null,Null,Null,Null,Null,Null,Null
5909845,Skookumchuck 4,Fraser Valley,Indian reserve,49.9439108,-122.4113713,0,0,0,Null,Null,0,10,0,10,0,0,10.2,0,10,15,0,15,0,15,Null,Null,Null,Null,Null,Null,Null,Null,Null,Null,Null,Null,Null,Null,Null
5909875,Q'alatkÅ_7em,Fraser Valley,Indian reserve,50.05163422,-122.5390504,0,0,0,Null,Null,0,0,0,0,0,0,0,0,0,10,10,10,0,15,Null,Null,Null,Null,Null,Null,Null,Null,Null,Null,Null,Null,Null,Null,Null
5909877,Upper Sumas 6,Fraser Valley,Indian reserve,49.05246945,-122.1944114,0,0,0,Null,Null,0,40,0,0,0,0,20.4,0,10,20,20,25,10,25,Null,Null,Null,Null,Null,Null,Null,Null,Null,Null,Null,Null,Null,Null,Null
5909878,Matsqui Main 2,Fraser Valley,Indian reserve,49.10882768,-122.3512021,0,0,0,Null,Null,0,15,0,0,0,0,5.8,0,0,15,10,10,10,0,Null,Null,Null,Null,Null,Null,Null,Null,Null,Null,Null,Null,Null,Null,Null
5909879,Holachten 8,Fraser Valley,Indian reserve,49.20774843,-122.0245057,0,0,0,0,0,0,95,0,0,0,0,35.6,0,50,65,15,105,15,10,37192,Null,Null,Null,Null,Null,Null,Null,10,Null,Null,Null,Null,Null,38180
5909880,Lakahahmen 11,Fraser Valley,Indian reserve,49.18469802,-122.0763367,0,0,0,Null,Null,0,45,0,0,0,0,30.3,10,30,30,10,70,10,0,Null,Null,Null,Null,Null,Null,Null,Null,Null,Null,Null,Null,Null,Null,Null
5909881,Skweahm 10,Fraser Valley,Indian reserve,49.17192995,-122.0835705,0,0,0,0,0,0,100,0,0,0,0,20.7,0,25,70,20,105,0,0,44160,Null,Null,Null,Null,Null,Null,Null,25,Null,Null,Null,Null,Null,52079
5909882,Squawkum Creek 3,Fraser Valley,Indian reserve,49.24082283,-121.9997187,0,0,0,Null,Null,0,25,0,0,0,0,20.3,0,0,20,15,15,0,15,Null,Null,Null,Null,Null,Null,Null,Null,Null,Null,Null,Null,Null,Null,Null
5909884,Skowkale,Fraser Valley,Indian reserve,49.13743428,-121.942794,0,0,0,0,0,0,190,0,0,0,0,15.3,80,125,85,55,320,15,15,40906,15,0,10,30,60,45,50,35,45,25,15,0,10,42884
5909885,Squiaala,Fraser Valley,Indian reserve,49.15673187,-121.985862,0,0,0,Null,Null,0,10,0,0,0,0,16,0,10,10,15,20,0,10,Null,Null,Null,Null,Null,Null,Null,Null,Null,Null,Null,Null,Null,Null,Null
5915001,Langley,Greater Vancouver,District municipality,49.09385978,-122.5720065,501361,1381,1001,24.8,40.7,8.1,45310,1740,1635,245,665,25.1,2485,7675,13310,13765,31545,5695,0,68007,890,510,695,1375,2175,3055,2680,2790,5385,4385,4790,3355,5165,76847
5915002,Langley,Greater Vancouver,City,49.09868987,-122.6597286,300696,1162,853,27,48.7,28,10585,570,615,85,135,22.5,2605,4410,2550,1745,7350,3960,0,46438,460,230,485,930,1030,1250,1245,845,1550,1315,885,540,545,50231
5915004,Surrey,Greater Vancouver,City,49.11675572,-122.7842792,500746,1391,794,27.3,37.7,11.3,176075,27040,5465,730,2410,30.2,18025,38135,45465,51225,111660,41185,0,61023,4505,2855,4140,6180,11495,12920,13030,12185,22375,18165,16085,10995,17910,67702
5915007,White Rock,Greater Vancouver,City,49.02576526,-122.805856,450494,850,891,24.9,45.1,10,6735,670,540,60,165,25.7,2350,4270,1740,1515,6725,3140,0,50840,245,180,380,625,1140,935,845,730,1630,905,905,430,905,56946
5915011,Delta,Greater Vancouver,District municipality,49.10009751,-123.0160129,562181,1196,864,20.3,37.2,13.7,38710,4870,1740,640,695,25.9,3175,5855,12080,13640,28140,6615,0,71590,575,490,610,1250,2045,2400,2440,2410,4930,4140,4355,3270,5840,80874
5915015,Richmond,Greater Vancouver,City,49.16296006,-123.1089735,601945,1047,1101,32,47.5,15.3,63790,15125,2930,1055,995,20.8,10385,17125,20860,19605,52420,15555,0,54597,3220,1700,2205,3145,6265,6270,5535,5400,9440,7270,6250,4020,7250,60479
5915020,Greater Vancouver A,Greater Vancouver,Regional district electoral area,49.45874586,-122.8518262,753578,1293,1226,41.3,68.6,14.9,1795,690,1190,295,80,20.6,1430,2240,685,690,2555,2495,0,34520,755,435,240,275,570,375,260,215,335,305,425,215,640,36089
5915022,Vancouver,Greater Vancouver,City,49.24862007,-123.1078317,752016,1119,1004,28.9,46,14,152120,88290,36960,12855,4570,20.9,107395,70095,36960,50115,128440,136135,0,50116,14115,6855,12250,16550,23885,23065,23490,19445,33690,25370,21650,13935,30270,56113
5915025,Burnaby,Greater Vancouver,City,49.24561785,-122.9652402,600941,1030,966,29.1,46.2,15.2,68000,29240,4490,750,1435,30.1,21135,26315,18075,21315,55125,31710,0,51123,4960,2055,2820,4925,8085,8135,7990,6790,11420,8820,7705,4895,8245,56136
5915029,New Westminster,Greater Vancouver,City,49.20808469,-122.9192862,400729,1338,830,27,44.1,14.7,21745,9725,1905,310,540,30.2,11610,10785,4390,3800,17210,13375,0,49135,1365,705,1225,1865,2765,2955,3125,2635,4410,3120,2420,1655,2335,54664
5915034,Coquitlam,Greater Vancouver,City,49.2973237,-122.7714996,599465,1310,949,27.5,48.2,11.3,46275,10215,2075,290,780,30.4,6895,10665,12365,15635,33880,11675,0,60737,1670,1120,1215,1970,3535,3715,3615,3335,6000,5010,5000,3270,6090,67787
5915036,Belcarra,Greater Vancouver,Village,49.32774062,-122.8997847,1393995,1306,687,26,0,0,290,0,0,0,0,30.8,0,30,115,115,245,20,0,125515,0,0,0,0,10,0,15,0,20,35,20,45,105,139673
5915038,Anmore,Greater Vancouver,Village,49.34482492,-122.8496989,1102094,1949,1604,27,0,0,810,125,15,0,0,30.3,15,50,160,400,575,55,0,114113,0,0,0,0,0,30,20,50,55,80,30,30,310,145286
5915039,Port Coquitlam,Greater Vancouver,City,49.253342,-122.7619225,489678,1426,913,25.7,43.9,19.9,23410,3620,1055,195,330,30.6,2550,4710,7060,6335,16125,4520,0,64463,480,470,500,630,1385,1460,1815,1715,2795,2805,2475,1655,2460,72563
5915043,Port Moody,Greater Vancouver,City,49.29794439,-122.8700103,539932,1529,1281,25.1,40.7,11.3,12845,2620,315,100,255,30.6,1325,3740,4305,3265,9715,2920,0,69042,375,230,210,390,635,805,970,875,1825,1535,1530,1150,2095,79918
5915046,North Vancouver,Greater Vancouver,District municipality,49.3640889,-123.0066264,850744,1195,1203,25.2,42,15.9,29990,5765,1390,835,675,20.7,3195,5845,9115,12395,24765,5790,0,76556,575,440,595,1070,1805,1835,1785,2080,3750,3310,3400,2695,7215,87322
5915051,North Vancouver,Greater Vancouver,City,49.32020259,-123.0699284,599985,1209,1017,26.9,43.4,10.8,15960,5860,2940,525,365,20.5,8620,7260,4120,2790,12390,10400,0,52794,860,405,770,1225,1945,2210,2340,1770,3275,2210,2275,1190,2320,59373
5915055,West Vancouver,Greater Vancouver,District municipality,49.36845788,-123.1930074,1299894,988,1284,26,54.5,11.6,11020,1950,755,250,290,20.7,2655,3725,4045,6650,13465,3615,0,73213,460,305,385,925,1115,1220,1195,955,1610,1410,1250,1150,5095,84345
5915065,Lions Bay,Greater Vancouver,Village,49.46263268,-123.2356927,1001342,1446,773,21.8,23.1,0,465,100,0,0,0,31,25,45,215,215,430,65,0,94106,0,0,0,0,0,20,25,25,35,95,95,80,115,106970
5915070,Pitt Meadows,Greater Vancouver,City,49.27196502,-122.6637759,459965,1411,922,28,34.9,16.4,7415,1195,320,40,105,30.2,555,1740,2685,1735,5250,1470,0,65934,185,90,130,335,390,585,505,520,980,790,850,650,705,73065
5915075,Maple Ridge,Greater Vancouver,District municipality,49.26224519,-122.5161393,449365,1500,868,27.1,45.1,15.7,31555,3475,1215,195,320,30.5,2610,5880,9875,9675,22590,5450,0,63231,685,430,690,1405,1745,2055,2225,2140,4415,3465,3535,2205,3040,71078
5915801,Semiahmoo,Greater Vancouver,Indian reserve,49.01262103,-122.7684457,0,0,0,Null,Null,0,40,0,0,0,0,30.1,20,30,15,0,60,0,0,Null,Null,Null,Null,Null,Null,Null,Null,Null,Null,Null,Null,Null,Null,Null
5915802,Tsawwassen,Greater Vancouver,Indian reserve,49.0436288,-123.0985053,0,0,0,0,0,0,220,0,25,15,0,20.4,30,75,95,95,265,20,10,52506,10,20,15,0,25,10,45,15,20,15,25,0,65,56945
5915803,Musqueam 2,Greater Vancouver,Indian reserve,49.22944925,-123.2074415,0,0,0,0,0,0,395,70,95,30,0,15.9,10,80,230,240,390,135,30,55025,40,30,15,35,50,45,45,20,45,25,55,35,115,58935
5915806,Burrard Inlet 3,Greater Vancouver,Indian reserve,49.30934696,-122.9788347,0,0,0,0,0,0,630,75,45,25,0,20.8,205,405,75,45,535,190,0,61198,0,40,0,0,65,90,40,55,115,95,90,30,90,69201
5915807,Mission 1,Greater Vancouver,Indian reserve,49.31660441,-123.088073,0,0,0,0,0,0,130,55,25,0,0,15.8,0,40,50,80,80,10,75,36625,Null,Null,Null,Null,Null,Null,Null,15,Null,Null,Null,Null,Null,36881
5915808,Capilano 5,Greater Vancouver,Indian reserve,49.32161028,-123.1319111,0,0,0,0,0,0,540,300,155,10,0,20,730,320,135,125,210,930,170,31046,110,70,110,165,145,160,140,90,100,75,65,20,45,32752
5915811,Seymour Creek 2,Greater Vancouver,Indian reserve,49.30559546,-123.0251579,0,0,0,Null,Null,0,25,0,0,0,0,15.7,0,10,0,15,0,0,20,Null,Null,Null,Null,Null,Null,Null,Null,Null,Null,Null,Null,Null,Null,Null
5915816,McMillan Island 6,Greater Vancouver,Indian reserve,49.17493291,-122.5651035,0,0,0,Null,Null,0,15,0,0,0,0,40.8,0,0,10,10,25,0,0,Null,Null,Null,Null,Null,Null,Null,Null,Null,Null,Null,Null,Null,Null,Null
5915825,Matsqui 4,Greater Vancouver,Indian reserve,49.00521101,-122.4762864,0,0,0,0,0,0,20,0,0,0,0,20.4,0,215,30,0,210,35,0,35724,Null,Null,Null,Null,Null,Null,Null,25,Null,Null,Null,Null,Null,37060
5915830,Katzie 1,Greater Vancouver,Indian reserve,49.20284173,-122.6736705,0,0,0,Null,Null,0,40,10,10,0,0,20.3,10,0,30,20,55,0,10,Null,Null,Null,Null,Null,Null,Null,Null,Null,Null,Null,Null,Null,Null,Null
5917005,North Saanich,Capital,District municipality,48.6566704,-123.440701,728626,709,848,16.4,33,14.7,3970,295,110,160,145,15.8,280,720,1945,1560,4025,480,0,78544,80,35,35,90,310,340,265,350,575,570,515,375,970,89835
5917010,Sidney,Capital,Town,48.65198043,-123.4070892,450051,750,1081,24.5,52.6,4.8,3125,320,470,155,120,15.7,700,2195,1575,860,4280,1045,0,50137,65,120,85,315,660,620,550,435,985,615,440,185,255,55687
5917015,Central Saanich,Capital,District municipality,48.58042263,-123.4221662,558248,956,921,18.7,40.6,16.8,6280,455,290,230,185,20.2,665,1505,2470,1960,5315,1285,0,67818,55,50,110,280,465,475,635,500,890,860,840,495,925,77324
5917021,Saanich,Capital,District municipality,48.49688788,-123.3898938,598306,935,948,21.7,44.8,15.8,38680,6455,3035,2790,1135,15.8,6130,11500,13435,14325,33245,12140,0,60876,1135,670,1180,2025,3330,3765,4100,3640,6585,5415,4870,3290,5385,68393
5917027,Capital F,Capital,Regional district electoral area,48.81374775,-123.4972162,525275,602,774,28.6,56.2,10.5,2955,160,265,80,80,11.5,540,1655,1545,925,3845,815,0,48316,235,100,140,295,515,470,405,505,675,495,340,310,175,53523
5917029,Capital G,Capital,Regional district electoral area,48.81976326,-123.3161237,449363,408,836,16.4,51.7,10.2,1440,50,85,65,20,15.4,345,1065,865,260,2235,295,0,46889,60,30,80,235,335,235,260,350,325,260,155,75,125,52025
5917030,Oak Bay,Capital,District municipality,48.43542223,-123.3103494,776697,771,906,17.2,50.9,12.5,4450,725,700,700,275,15.5,1240,1785,2060,2675,5880,1885,0,70754,155,175,135,340,645,545,485,545,855,700,910,630,1650,80388
5917034,Victoria,Capital,City,48.42835017,-123.3564126,456218,1025,865,25.2,49.4,13.1,20040,5565,9105,4250,990,15.8,18410,15440,5815,3295,17485,25475,0,41337,1660,1165,2725,3135,4825,5365,4540,3530,5885,3895,2730,1540,1965,45827
5917040,Esquimalt,Capital,District municipality,48.43372014,-123.4114521,449490,1132,874,24.1,45.3,13,5270,1340,950,530,240,17.1,2150,3005,1935,945,3975,4065,0,48656,185,90,510,425,870,735,915,720,1405,815,765,285,315,52956
5917041,Colwood,Capital,City,48.42629174,-123.4865303,500696,1343,1002,20.6,28.9,22.3,6790,585,235,230,190,28,440,1150,2460,2050,4775,1320,0,71839,90,155,50,215,220,335,455,470,935,1090,875,590,615,82703
5917042,Metchosin,Capital,District municipality,48.37788861,-123.5697542,673069,980,949,23.9,20.7,10.2,1875,50,65,50,35,30.4,180,325,705,575,1485,300,0,70990,25,0,15,125,75,85,125,110,320,250,215,185,250,80834
5917044,Langford,Capital,City,48.45103525,-123.529042,466608,1516,1097,27.9,45.9,10.3,13065,985,845,275,230,25.4,1320,2970,4315,3080,8855,2825,0,62069,325,150,300,505,665,815,1105,1100,1765,1655,1365,910,1020,69820
5917047,View Royal,Capital,Town,48.47107721,-123.4625302,527487,1215,1003,21.3,36.5,13.6,3755,630,130,175,85,20.5,580,950,1500,915,2845,1100,0,65672,65,75,90,195,205,290,310,350,585,500,515,285,480,74519
5917049,Highlands,Capital,District municipality,48.51533294,-123.5038913,641398,1508,1057,17.4,0,0,1025,20,25,0,30,25.3,15,125,275,360,745,35,0,87881,0,0,0,0,0,35,45,45,75,145,150,60,175,96805
5917052,Sooke,Capital,District municipality,48.39703627,-123.6924245,409991,1393,950,27,50.9,16.3,4505,470,225,35,105,35.1,325,1180,1910,1090,3675,835,0,58003,130,55,125,210,360,380,445,390,745,485,525,350,310,64867
5917054,Capital H (Part 1),Capital,Regional district electoral area,48.43775092,-123.6899392,501256,1094,1273,24.1,46.3,0,1700,135,40,0,40,40.3,175,465,755,430,1555,270,0,58901,55,50,45,75,175,125,120,195,300,210,255,110,120,67985
5917801,Cole Bay 3,Capital,Indian reserve,48.62260232,-123.4562016,0,0,0,0,0,0,50,10,10,0,0,10.7,0,15,35,25,50,0,25,31322,Null,Null,Null,Null,Null,Null,Null,15,Null,Null,Null,Null,Null,32395
5917802,Union Bay 4,Capital,Indian reserve,48.6646278,-123.4492898,0,0,0,Null,Null,0,15,0,0,0,0,10.8,0,10,10,15,25,10,0,Null,Null,Null,Null,Null,Null,Null,Null,Null,Null,Null,Null,Null,Null,Null
5917803,East Saanich 2,Capital,Indian reserve,48.58783574,-123.3884536,0,0,0,0,0,0,445,35,50,10,20,20.4,155,480,175,45,785,40,25,41362,20,10,45,55,105,110,125,100,160,70,45,10,10,45107
5917804,South Saanich 1,Capital,Indian reserve,48.58492503,-123.4553224,0,0,0,0,0,0,180,15,10,0,0,15.6,15,55,85,45,160,35,15,41481,Null,Null,Null,Null,Null,Null,Null,20,Null,Null,Null,Null,Null,41564
5917812,New Songhees 1A,Capital,Indian reserve,48.44533107,-123.4236545,0,0,0,0,0,0,450,75,55,20,0,16.7,70,540,185,45,635,200,0,45132,0,10,35,45,125,110,100,130,160,70,35,0,0,47155
5917815,Gordon River 2,Capital,Indian reserve,48.57794041,-124.4061714,0,0,0,Null,Null,0,15,0,15,0,0,5.3,0,10,10,10,20,0,10,Null,Null,Null,Null,Null,Null,Null,Null,Null,Null,Null,Null,Null,Null,Null
5917819,T'Sou-ke,Capital,Indian reserve,48.37062716,-123.7304502,0,0,0,Null,Null,0,85,0,15,0,0,15.1,0,15,40,20,45,15,25,Null,Null,Null,Null,Null,Null,Null,Null,Null,Null,Null,Null,Null,Null,Null
5919008,North Cowichan,Cowichan Valley,District municipality,48.8398345,-123.6977142,375920,791,730,18.9,57.7,16,10520,270,680,200,195,15.4,965,2895,5105,3085,9355,2700,0,51277,230,260,450,620,1375,1360,1120,1035,1740,1345,1220,550,740,55979
5919012,Duncan,Cowichan Valley,City,48.77939698,-123.7021517,274441,460,794,24.8,62.3,14.6,1330,40,215,50,0,10.9,570,1020,625,175,1350,1035,0,33401,95,60,180,235,460,285,280,220,215,155,110,35,55,35703
5919013,Cowichan Valley D,Cowichan Valley,Regional district electoral area,48.74322692,-123.6257204,400745,965,572,18.8,29,0,1175,25,55,0,0,15.7,125,275,525,355,1120,155,0,59598,25,10,70,20,45,150,140,65,240,185,190,50,70,68917
5919015,Cowichan Valley G,Cowichan Valley,Regional district electoral area,48.97545263,-123.9784566,400926,492,783,22.5,56.5,0,825,0,0,0,40,20.6,105,325,290,270,875,115,0,48402,0,10,45,25,85,185,115,60,180,100,85,30,55,51925
5919016,Lake Cowichan,Cowichan Valley,Town,48.82361401,-124.0600474,299052,682,672,20,57.6,25.4,1050,0,75,15,0,25.2,120,335,480,360,1005,295,0,42672,25,20,95,130,155,155,100,140,200,120,75,50,25,44170
5919017,Cowichan Valley H,Cowichan Valley,Regional district electoral area,49.01973816,-123.8916791,420019,789,657,23.5,10.3,0,790,0,50,0,15,20.8,105,255,385,275,870,145,0,51199,0,0,90,15,130,125,85,95,165,130,45,55,50,55972
5919021,Ladysmith,Cowichan Valley,Town,48.97514547,-123.8084561,340923,835,853,18.3,45,22.1,2980,0,340,0,125,20.3,250,835,1410,910,2710,700,0,49889,40,85,30,170,370,405,415,315,465,340,325,280,180,54413
5919035,Cowichan Valley I,Cowichan Valley,Regional district electoral area,48.95487585,-124.3475088,399886,700,783,29.8,0,0,330,0,0,0,0,25.1,0,215,265,85,475,100,0,33672,50,0,0,20,100,90,45,40,75,30,25,10,20,35197
5919043,Cowichan Valley A,Cowichan Valley,Regional district electoral area,48.61177685,-123.5557824,479635,580,751,16.2,37.5,9.4,1690,35,85,0,25,25.7,155,390,710,510,1605,165,0,64914,35,20,0,70,180,210,85,105,270,210,180,205,190,74378
5919046,Cowichan Valley B,Cowichan Valley,Regional district electoral area,48.64830916,-123.7195294,424956,1375,1096,22.6,45.6,0,3705,65,70,35,35,30.9,155,595,1195,1120,2785,280,0,69175,80,70,40,75,225,190,205,200,475,510,300,295,405,78731
5919049,Cowichan Valley C,Cowichan Valley,Regional district electoral area,48.69746982,-123.5795347,450411,644,991,17.6,35.5,0,1595,45,40,15,45,25.3,45,755,835,475,1955,160,0,64618,55,0,45,45,220,145,165,145,370,325,225,190,175,71108
5919051,Cowichan Valley E,Cowichan Valley,Regional district electoral area,48.77700791,-123.789191,380737,1029,803,22,47.2,22.2,1560,20,45,0,35,15.8,80,290,655,485,1335,180,0,64554,25,10,70,70,130,145,120,85,195,305,195,75,100,74475
5919801,Halalt 2,Cowichan Valley,Indian reserve,48.8760969,-123.6930047,0,0,0,Null,Null,0,35,0,10,0,0,15.1,0,10,15,10,25,0,10,Null,Null,Null,Null,Null,Null,Null,Null,Null,Null,Null,Null,Null,Null,Null
5919802,Squaw-hay-one 11,Cowichan Valley,Indian reserve,48.90140103,-123.6951572,0,0,0,Null,Null,0,0,0,0,0,0,0,0,0,0,10,0,0,0,Null,Null,Null,Null,Null,Null,Null,Null,Null,Null,Null,Null,Null,Null,Null
5919803,Tsussie 6,Cowichan Valley,Indian reserve,48.88347783,-123.6757673,0,0,0,Null,Null,0,15,0,0,0,0,25.6,0,0,15,0,10,0,10,Null,Null,Null,Null,Null,Null,Null,Null,Null,Null,Null,Null,Null,Null,Null
5919804,Chemainus 13,Cowichan Valley,Indian reserve,49.01248083,-123.7850704,0,0,0,0,0,0,105,0,10,0,0,16,0,15,55,75,45,20,90,37628,Null,Null,Null,Null,Null,Null,Null,15,Null,Null,Null,Null,Null,38346
5919809,Kuper Island 7,Cowichan Valley,Indian reserve,48.96171047,-123.6455005,0,0,0,0,0,0,55,0,10,0,0,25.3,0,15,75,35,65,15,50,19645,Null,Null,Null,Null,Null,Null,Null,15,Null,Null,Null,Null,Null,19645
5919814,Malachan 11,Cowichan Valley,Indian reserve,48.80774435,-124.6688167,0,0,0,Null,Null,0,10,0,25,0,0,4.5,0,25,15,15,25,10,25,Null,Null,Null,Null,Null,Null,Null,Null,Null,Null,Null,Null,Null,Null,Null
5919815,Malahat 11,Cowichan Valley,Indian reserve,48.62033328,-123.5301806,0,0,0,Null,Null,0,10,0,0,0,0,3,0,0,0,10,0,0,15,Null,Null,Null,Null,Null,Null,Null,Null,Null,Null,Null,Null,Null,Null,Null
5919816,Oyster Bay 12,Cowichan Valley,Indian reserve,49.01848496,-123.8576646,0,0,0,Null,Null,0,15,0,0,0,0,8.3,0,0,0,10,0,0,0,Null,Null,Null,Null,Null,Null,Null,Null,Null,Null,Null,Null,Null,Null,Null
5919822,Cowichan,Cowichan Valley,Indian reserve,48.76664631,-123.6742525,0,0,0,0,0,0,370,0,35,0,0,11,30,60,185,230,305,115,80,38886,20,15,30,45,80,70,65,45,65,30,20,10,0,39182
5921007,Nanaimo,Nanaimo,City,49.17972673,-123.9662989,348460,948,849,24.6,52.7,13.8,30860,1350,2660,700,725,15.1,4385,10645,11230,9950,25990,10210,0,48469,1065,870,1660,2245,3715,3735,3875,3330,5205,3960,2775,1700,2070,52744
5921008,Lantzville,Nanaimo,District municipality,49.23003422,-124.100239,448884,826,1003,21.2,44.4,0,1405,15,60,25,55,20.1,50,215,665,530,1330,135,0,61463,15,0,25,65,90,120,175,115,280,135,145,95,205,69426
5921010,Nanaimo A,Nanaimo,Regional district electoral area,49.08677307,-123.8476377,379927,893,1002,22,50.7,0,2940,20,90,70,80,20.2,165,730,1275,730,2525,380,0,55103,65,70,80,120,355,265,210,265,480,405,295,175,135,61420
5921014,Nanaimo B,Nanaimo,Regional district electoral area,49.15629093,-123.7862796,359015,399,800,19.3,40,10,1015,145,140,30,75,15.3,270,880,700,225,1870,205,0,46124,40,90,110,125,225,260,205,185,235,215,170,80,130,48133
5921016,Nanaimo C,Nanaimo,Regional district electoral area,49.12328839,-124.2827413,450250,664,851,18.9,39.4,0,1065,10,65,0,0,15.5,70,235,375,350,865,165,0,62102,0,0,25,80,55,90,50,115,140,145,125,70,120,70906
5921018,Parksville,Nanaimo,City,49.31746988,-124.3045907,341293,684,804,18.9,50.2,11.9,3355,40,365,40,80,10.8,385,2520,2295,485,4420,1265,0,46207,110,45,110,370,815,680,700,735,885,530,375,170,160,50261
5921023,Qualicum Beach,Nanaimo,Town,49.34539155,-124.4292803,400736,467,1012,12.9,55.3,8.1,1765,35,160,50,70,15.3,210,1475,1950,500,3700,425,0,51236,70,100,75,240,385,580,440,335,770,400,300,150,280,55445
5921030,Nanaimo E,Nanaimo,Regional district electoral area,49.2600716,-124.188004,501531,633,999,17.6,51.1,10.6,1705,15,70,45,90,20.2,150,775,1090,575,2355,235,0,61854,95,20,55,120,180,225,250,180,350,355,225,175,355,68463
5921032,Nanaimo F,Nanaimo,Regional district electoral area,49.27836665,-124.4635219,397358,782,764,23.6,57.7,0,2970,0,155,40,85,15.7,355,1100,1165,625,2465,785,0,44161,95,50,145,190,340,390,480,245,465,355,265,125,100,48519
5921034,Nanaimo G,Nanaimo,Regional district electoral area,49.32864891,-124.4077595,400068,599,1160,19.1,60.8,0,2250,45,135,55,55,15.7,55,935,1695,480,2910,260,0,55137,75,50,70,95,265,400,355,245,470,435,250,180,265,60726
5921036,Nanaimo H,Nanaimo,Regional district electoral area,49.37001081,-124.7284915,400588,467,946,15.3,56.1,7.6,1030,0,40,0,30,25.6,150,565,700,220,1310,330,0,44661,55,35,75,80,230,230,185,80,250,155,140,55,75,47404
5921804,Nanaimo Town 1,Nanaimo,Indian reserve,49.15048957,-123.9291346,0,0,0,0,0,0,60,0,30,0,0,5.7,0,25,50,50,55,20,40,35018,Null,Null,Null,Null,Null,Null,Null,10,Null,Null,Null,Null,Null,35408
5921805,Nanoose,Nanaimo,Indian reserve,49.25113633,-124.1226888,0,0,0,Null,Null,0,35,0,20,0,0,10.4,0,15,40,15,15,0,55,Null,Null,Null,Null,Null,Null,Null,Null,Null,Null,Null,Null,Null,Null,Null
5921806,Qualicum,Nanaimo,Indian reserve,49.39767634,-124.6137768,0,0,0,Null,Null,0,30,0,10,0,0,5.5,0,10,15,10,20,0,10,Null,Null,Null,Null,Null,Null,Null,Null,Null,Null,Null,Null,Null,Null,Null
5921807,Nanaimo River,Nanaimo,Indian reserve,49.12416998,-123.8801617,0,0,0,0,0,0,30,0,0,0,0,15.6,10,15,30,45,20,0,70,24001,Null,Null,Null,Null,Null,Null,Null,10,Null,Null,Null,Null,Null,24001
5923008,Port Alberni,Alberni-Clayoquot,City,49.24755572,-124.802173,235388,539,660,16.8,48.9,14.2,5265,200,465,80,55,10.3,800,2230,2760,2155,5380,2565,0,41964,170,250,505,630,990,1000,885,670,1170,660,510,360,140,44819
5923033,Alberni-Clayoquot B,Alberni-Clayoquot,Regional district electoral area,49.36004475,-124.9028833,320270,376,0,19.4,0,0,175,0,40,0,0,20.1,0,20,85,80,180,0,0,48452,Null,Null,Null,Null,Null,Null,Null,30,Null,Null,Null,Null,Null,50405
5923035,Alberni-Clayoquot D,Alberni-Clayoquot,Regional district electoral area,49.35226939,-125.2033724,500684,458,728,19.3,66.7,0,610,0,55,0,0,15.8,0,180,215,325,680,90,0,51616,0,0,0,25,85,45,105,65,70,70,80,55,105,53737
5923037,Alberni-Clayoquot E,Alberni-Clayoquot,Regional district electoral area,49.29941098,-124.8595548,299093,403,665,14.2,48.3,0,1120,0,30,0,20,12.3,70,305,450,355,1040,145,0,51540,15,30,45,20,125,175,115,140,140,150,100,80,45,55151
5923039,Alberni-Clayoquot F,Alberni-Clayoquot,Regional district electoral area,49.18936856,-124.7156896,276081,473,722,24.6,52.6,0,685,0,0,0,0,10.7,20,210,425,200,760,95,0,45403,45,0,0,25,110,100,120,120,140,65,40,30,40,50292
5923801,Ahahswinis 1,Alberni-Clayoquot,Indian reserve,49.26496628,-124.8254676,0,0,0,Null,Null,0,25,0,0,0,0,10.6,0,10,25,20,40,20,0,Null,Null,Null,Null,Null,Null,Null,Null,Null,Null,Null,Null,Null,Null,Null
5923803,Anacla 12,Alberni-Clayoquot,Indian reserve,48.80136361,-125.1219301,0,0,0,Null,Null,0,35,0,0,0,0,8,0,15,15,10,15,10,15,Null,Null,Null,Null,Null,Null,Null,Null,Null,Null,Null,Null,Null,Null,Null
5923807,Ittatsoo 1,Alberni-Clayoquot,Indian reserve,48.94041394,-125.526967,0,0,0,Null,Null,0,70,0,10,0,0,15.1,0,30,35,20,45,10,30,Null,Null,Null,Null,Null,Null,Null,Null,Null,Null,Null,Null,Null,Null,Null
5923808,Marktosis 15,Alberni-Clayoquot,Indian reserve,49.28078212,-126.060479,0,0,0,0,0,0,15,0,180,0,25,5.6,0,25,75,55,100,10,50,53888,Null,Null,Null,Null,Null,Null,Null,20,Null,Null,Null,Null,Null,54828
5923813,Opitsat 1,Alberni-Clayoquot,Indian reserve,49.17638498,-125.9109646,0,0,0,Null,Null,0,0,0,0,0,35,30.7,0,15,15,10,0,0,45,Null,Null,Null,Null,Null,Null,Null,Null,Null,Null,Null,Null,Null,Null,Null
5923816,Tsahaheh 1,Alberni-Clayoquot,Indian reserve,49.27156983,-124.8693094,0,0,0,0,0,0,150,10,15,0,0,6,15,40,95,45,135,45,0,33576,Null,Null,Null,Null,Null,Null,Null,15,Null,Null,Null,Null,Null,33888
5923823,Esowista 3,Alberni-Clayoquot,Indian reserve,49.07204823,-125.7819881,0,0,0,Null,Null,0,45,0,0,0,0,15.5,0,0,20,15,35,0,0,Null,Null,Null,Null,Null,Null,Null,Null,Null,Null,Null,Null,Null,Null,Null
5923824,Refuge Cove 6,Alberni-Clayoquot,Indian reserve,49.36565732,-126.271813,0,0,0,Null,Null,0,0,0,30,0,0,5.2,0,0,10,10,20,0,10,Null,Null,Null,Null,Null,Null,Null,Null,Null,Null,Null,Null,Null,Null,Null
5924029,Zeballos,Strathcona,Village,49.98714917,-126.8532348,174873,865,0,Null,Null,0,30,0,0,0,0,10.4,0,30,0,0,40,0,0,Null,Null,Null,Null,Null,Null,Null,Null,Null,Null,Null,Null,Null,Null,Null
5924034,Campbell River,Strathcona,City,50.00212612,-125.29625,280082,841,790,18.3,48.4,14.6,11445,880,780,245,420,11,1075,3445,5755,3145,9975,3450,0,50664,355,220,530,950,1195,1505,1315,1035,2020,1590,1210,680,825,56362
5924039,Sayward,Strathcona,Village,50.37155538,-125.9481882,200004,333,1001,10,0,0,100,0,10,0,0,30.6,0,45,90,25,155,20,0,51360,Null,Null,Null,Null,Null,Null,Null,0,Null,Null,Null,Null,Null,60554
5924042,Strathcona D (Oyster Bay - Buttle Lake),Strathcona,Regional district electoral area,49.79280479,-125.6172668,320198,686,879,20.3,26.2,0,1675,20,35,20,30,20.1,60,325,960,340,1480,210,0,55413,70,25,20,75,80,185,140,160,320,200,185,85,140,64265
5924052,Strathcona B,Strathcona,Regional district electoral area,50.11407795,-124.9724614,300534,430,633,8,17.6,0,335,0,65,35,0,10.4,190,130,155,75,385,170,0,46882,0,0,35,25,100,55,40,90,90,40,15,0,30,50173
5924054,Strathcona C,Strathcona,Regional district electoral area,50.7623448,-124.9541757,324044,344,651,16.4,41.2,0,670,65,95,55,105,20.6,240,395,325,200,890,255,0,50544,15,45,45,55,115,120,150,115,220,115,30,85,50,54417
5924804,Campbell River 11,Strathcona,Indian reserve,50.03560472,-125.2519466,0,0,0,0,0,0,120,10,15,0,0,5.9,0,35,65,40,130,10,10,46991,Null,Null,Null,Null,Null,Null,Null,10,Null,Null,Null,Null,Null,48783
5924806,Houpsitas 6,Strathcona,Indian reserve,50.03131237,-127.377789,0,0,0,Null,Null,0,10,10,40,0,0,5.6,0,10,25,0,0,0,40,Null,Null,Null,Null,Null,Null,Null,Null,Null,Null,Null,Null,Null,Null,Null
5924812,Quinsam 12,Strathcona,Indian reserve,50.01820461,-125.2919159,0,0,0,Null,Null,0,95,0,10,0,10,10.7,0,25,30,25,80,0,0,Null,Null,Null,Null,Null,Null,Null,Null,Null,Null,Null,Null,Null,Null,Null
5924817,Cape Mudge 10,Strathcona,Indian reserve,50.01341078,-125.1893396,0,0,0,Null,Null,0,45,0,10,0,0,15.4,10,15,20,20,55,10,0,Null,Null,Null,Null,Null,Null,Null,Null,Null,Null,Null,Null,Null,Null,Null
5924820,Tork 7,Strathcona,Indian reserve,50.12787306,-124.9347813,0,0,0,Null,Null,0,0,0,10,0,0,5.7,0,10,10,0,0,20,10,Null,Null,Null,Null,Null,Null,Null,Null,Null,Null,Null,Null,Null,Null,Null
5924835,Tsa Xana 18,Strathcona,Indian reserve,49.8154875,-126.0772231,0,0,0,Null,Null,0,20,0,10,0,0,5.5,10,15,15,20,15,15,30,Null,Null,Null,Null,Null,Null,Null,Null,Null,Null,Null,Null,Null,Null,Null
5924836,Ehatis 11,Strathcona,Indian reserve,49.9829072,-126.8616498,0,0,0,Null,Null,0,10,0,10,0,0,5.5,0,0,0,10,0,0,10,Null,Null,Null,Null,Null,Null,Null,Null,Null,Null,Null,Null,Null,Null,Null
5924840,Homalco 9,Strathcona,Indian reserve,49.95277586,-125.2441757,0,0,0,Null,Null,0,20,0,10,0,0,15.7,0,20,20,25,10,55,10,Null,Null,Null,Null,Null,Null,Null,Null,Null,Null,Null,Null,Null,Null,Null
5926005,Comox,Comox Valley,Town,49.69564305,-124.9108327,349086,707,864,13.2,45.1,17,4605,80,325,300,180,11.7,340,1600,2525,1515,4655,1320,0,54931,50,50,135,345,540,615,575,575,1000,855,520,310,385,61029
5926010,Courtenay,Comox Valley,City,49.69664141,-124.9794388,300382,736,810,17.2,53.1,12.2,8190,205,725,235,220,10.9,1045,3650,4190,2000,7575,3315,0,46002,195,170,555,825,1235,1410,1040,1030,1650,1250,825,305,410,50168
5926014,Cumberland,Comox Valley,Village,49.62984222,-125.0437686,324447,1189,982,31.4,56.9,29.4,1215,30,140,35,75,15.4,105,365,685,250,1150,255,0,47213,30,100,60,45,130,185,140,165,250,140,105,35,25,51809
5926021,Comox Valley A,Comox Valley,Regional district electoral area,49.5244161,-124.9141834,401146,523,650,16.1,34.1,7.6,2295,30,80,95,185,15.3,390,865,1255,710,2760,460,0,47826,35,45,130,220,335,445,365,275,475,305,260,135,185,50650
5926022,Comox Valley B (Lazo North),Comox Valley,Regional district electoral area,49.73498638,-124.966579,411285,625,914,17,52.1,0,2580,70,110,80,105,15.4,160,705,1220,840,2555,370,0,54666,40,50,80,165,290,250,310,230,460,350,290,195,215,62178
5926024,Comox Valley C (Puntledge - Black Creek),Comox Valley,Regional district electoral area,49.7188614,-125.2559122,394721,687,873,16.7,41.1,7.3,3265,55,95,145,170,20.8,140,995,1395,840,2890,485,0,58299,50,45,50,155,300,315,280,310,665,490,295,235,200,64166
5926801,Comox 1,Comox Valley,Indian reserve,49.67977896,-124.9547796,0,0,0,Null,Null,0,55,0,10,0,0,15.1,0,25,40,30,80,10,10,Null,Null,Null,Null,Null,Null,Null,Null,Null,Null,Null,Null,Null,Null,Null
5927008,Powell River,Powell River,City,49.86153922,-124.533742,260024,573,662,15.3,52.1,10.8,4375,140,420,65,120,10.3,600,1595,1955,1750,4610,1295,0,46972,100,145,295,325,510,820,710,620,740,580,565,260,235,50850
5927012,Powell River B,Powell River,Regional district electoral area,49.90029606,-124.4728365,300827,394,925,9.2,36.4,0,480,0,0,20,15,10.9,45,180,285,160,505,165,0,48521,0,0,45,60,45,85,50,100,110,65,55,35,15,55909
5927018,Powell River D,Powell River,Regional district electoral area,49.65253368,-124.3906862,174746,275,524,8.2,44.4,0,200,10,60,0,0,15.7,170,180,150,30,490,45,0,32686,15,0,0,30,125,50,100,30,55,35,25,0,10,34803
5927020,Powell River E,Powell River,Regional district electoral area,49.48289575,-124.2746005,210776,161,151,25,41.7,0,100,0,30,0,0,20.2,135,75,30,0,180,60,0,27392,Null,Null,Null,Null,Null,Null,Null,0,Null,Null,Null,Null,Null,28160
5927802,Sliammon 1,Powell River,Indian reserve,49.90567862,-124.6043958,0,0,0,0,0,0,130,0,20,0,0,15.5,30,70,120,55,160,50,65,23370,25,40,25,35,35,25,25,20,20,10,10,0,10,23370
5929005,Gibsons,Sunshine Coast,Town,49.40315759,-123.5161279,400465,869,916,24.8,48.3,10.8,1305,155,270,0,25,15.2,285,610,750,365,1415,605,0,48537,80,35,45,145,210,175,210,235,270,185,175,90,150,54088
5929011,Sechelt,Sunshine Coast,District municipality,49.48102616,-123.7611892,399711,604,1032,20.5,51,16.1,3260,260,200,50,100,12.2,485,1035,1900,875,3555,740,0,50684,120,40,105,195,485,480,430,470,515,595,335,185,350,56830
5929018,Sunshine Coast A,Sunshine Coast,Regional district electoral area,50.01708655,-123.9109873,421583,354,1149,19.8,47.5,0,775,0,70,0,40,20.4,165,615,465,175,1215,200,0,47945,40,0,0,25,190,180,220,150,220,180,100,45,25,50132
5929022,Sunshine Coast B,Sunshine Coast,Regional district electoral area,49.7189826,-123.6302282,499876,682,681,24.5,33.3,0,815,35,55,0,20,15.8,85,290,425,275,985,90,0,52788,0,20,0,30,60,85,125,125,195,100,110,45,105,61632
5929024,Sunshine Coast D,Sunshine Coast,Regional district electoral area,49.49738971,-123.6322737,500316,918,850,19.1,60.3,0,1025,70,125,0,40,18.1,280,295,400,390,1050,315,0,49677,55,60,75,45,105,130,190,90,185,195,85,50,100,53539
5929026,Sunshine Coast E,Sunshine Coast,Regional district electoral area,49.42077612,-123.544419,424581,773,1027,19.3,22.7,0,1260,115,70,45,25,15.5,85,350,635,365,1320,110,0,59565,25,0,20,100,105,120,130,115,255,220,135,110,95,65116
5929028,Sunshine Coast F,Sunshine Coast,Regional district electoral area,49.5418384,-123.4522551,448795,717,928,16.4,34.8,0,650,95,60,0,30,15.3,65,280,390,155,650,235,0,56387,40,0,0,30,130,60,105,40,175,75,80,50,75,63311
5929803,Sechelt (Part),Sunshine Coast,Indian government district,49.81037576,-123.789059,0,0,0,0,0,0,180,10,40,0,0,10.4,45,155,105,45,245,30,75,34081,10,15,20,40,50,45,50,20,45,25,15,0,0,34952
5931006,Squamish,Squamish-Lillooet,District municipality,49.74928381,-123.1373571,495859,1584,974,29.7,54.2,11.8,7410,320,440,300,95,11,765,1260,2830,1670,4740,1780,0,63966,185,95,270,290,355,610,640,340,845,855,830,445,760,72751
5931020,Whistler,Squamish-Lillooet,District municipality,50.09035566,-122.9942283,550642,1492,1298,40.4,51.8,15.4,3625,730,570,430,35,10.8,945,1050,1105,795,2500,1395,0,59105,175,45,65,170,225,450,320,285,555,555,420,200,445,65757
5931026,Lillooet,Squamish-Lillooet,District municipality,50.68299318,-121.9175417,200420,471,609,18.8,42.6,36.2,725,0,145,0,0,5.9,145,330,305,285,830,240,0,37920,20,45,65,120,145,125,60,115,120,95,75,15,65,41560
5931032,Squamish-Lillooet A,Squamish-Lillooet,Regional district electoral area,50.87394022,-122.9349512,125302,453,0,Null,Null,0,75,0,0,0,0,5.9,0,50,0,25,100,0,0,Null,Null,Null,Null,Null,Null,Null,Null,Null,Null,Null,Null,Null,Null,Null
5931034,Squamish-Lillooet B,Squamish-Lillooet,Regional district electoral area,50.72459884,-122.1479422,376086,275,870,16.7,0,0,110,0,0,0,0,20,0,10,105,45,100,65,0,54661,Null,Null,Null,Null,Null,Null,Null,15,Null,Null,Null,Null,Null,55685
5931801,Cheakamus 11,Squamish-Lillooet,Indian reserve,49.825596,-123.2047237,0,0,0,Null,Null,0,10,0,0,0,0,15.3,0,10,0,10,10,0,10,Null,Null,Null,Null,Null,Null,Null,Null,Null,Null,Null,Null,Null,Null,Null
5931806,Seaichem 16,Squamish-Lillooet,Indian reserve,49.75419465,-123.1417481,0,0,0,Null,Null,0,20,0,0,0,0,11.7,0,15,10,0,25,0,0,Null,Null,Null,Null,Null,Null,Null,Null,Null,Null,Null,Null,Null,Null,Null
5931807,Stawamus 24,Squamish-Lillooet,Indian reserve,49.69065466,-123.1494221,0,0,0,Null,Null,0,25,0,15,0,0,5.8,0,0,0,15,20,0,10,Null,Null,Null,Null,Null,Null,Null,Null,Null,Null,Null,Null,Null,Null,Null
5931808,Waiwakum 14,Squamish-Lillooet,Indian reserve,49.77081765,-123.1619785,0,0,0,Null,Null,0,40,0,0,0,0,15.5,0,0,10,20,15,0,15,Null,Null,Null,Null,Null,Null,Null,Null,Null,Null,Null,Null,Null,Null,Null
5931812,Nesuch 3,Squamish-Lillooet,Indian reserve,50.30653512,-122.6474723,0,0,0,Null,Null,0,35,0,0,0,0,30.8,10,20,10,10,40,0,0,Null,Null,Null,Null,Null,Null,Null,Null,Null,Null,Null,Null,Null,Null,Null
5931813,Bridge River 1,Squamish-Lillooet,Indian reserve,50.79628354,-122.0354775,0,0,0,Null,Null,0,60,0,0,0,0,10.9,10,15,45,30,20,0,60,Null,Null,Null,Null,Null,Null,Null,Null,Null,Null,Null,Null,Null,Null,Null
5931814,Cayoosh Creek 1,Squamish-Lillooet,Indian reserve,50.67284926,-121.9331062,0,0,0,Null,Null,0,15,0,0,0,0,5.7,0,10,10,10,0,0,25,Null,Null,Null,Null,Null,Null,Null,Null,Null,Null,Null,Null,Null,Null,Null
5931815,Chilhil 6,Squamish-Lillooet,Indian reserve,50.63677078,-121.8007141,0,0,0,Null,Null,0,20,0,0,0,0,25.7,0,10,10,10,10,10,0,Null,Null,Null,Null,Null,Null,Null,Null,Null,Null,Null,Null,Null,Null,Null
5931816,Fountain  1,Squamish-Lillooet,Indian reserve,50.7356298,-121.8624988,0,0,0,Null,Null,0,20,0,10,0,0,15.4,0,20,10,15,35,10,0,Null,Null,Null,Null,Null,Null,Null,Null,Null,Null,Null,Null,Null,Null,Null
5931821,Lillooet 1,Squamish-Lillooet,Indian reserve,50.69009169,-121.9536948,0,0,0,Null,Null,0,65,0,10,0,0,10.2,10,25,30,30,40,10,35,Null,Null,Null,Null,Null,Null,Null,Null,Null,Null,Null,Null,Null,Null,Null
5931823,McCartney's Flat 4,Squamish-Lillooet,Indian reserve,50.6581014,-121.8989735,0,0,0,Null,Null,0,10,0,0,0,0,10.2,0,0,0,15,0,0,15,Null,Null,Null,Null,Null,Null,Null,Null,Null,Null,Null,Null,Null,Null,Null
5931829,Pavilion 1,Squamish-Lillooet,Indian reserve,50.88360598,-121.8438097,0,0,0,Null,Null,0,25,0,0,0,0,30.2,0,0,0,10,0,0,20,Null,Null,Null,Null,Null,Null,Null,Null,Null,Null,Null,Null,Null,Null,Null
5931831,Slosh 1,Squamish-Lillooet,Indian reserve,50.72669955,-122.2277424,0,0,0,Null,Null,0,60,0,15,0,0,10.4,15,20,35,15,0,0,90,Null,Null,Null,Null,Null,Null,Null,Null,Null,Null,Null,Null,Null,Null,Null
5931842,Fountain  1B,Squamish-Lillooet,Indian reserve,50.74130787,-121.8787415,0,0,0,Null,Null,0,10,0,0,0,0,15.5,0,0,10,0,15,0,0,Null,Null,Null,Null,Null,Null,Null,Null,Null,Null,Null,Null,Null,Null,Null
5931843,Mount Currie,Squamish-Lillooet,Indian reserve,50.32415371,-122.6801414,0,0,0,0,0,0,255,20,55,0,10,15.4,40,105,145,100,250,80,60,28139,55,25,30,35,50,55,25,25,35,15,15,10,0,28699
5931844,Nequatque,Squamish-Lillooet,Indian reserve,50.54520603,-122.4793837,0,0,0,0,0,0,70,0,0,0,0,20.3,10,25,35,25,80,15,0,34383,Null,Null,Null,Null,Null,Null,Null,10,Null,Null,Null,Null,Null,34383
5933006,Merritt,Thompson-Nicola,City,50.11391483,-120.7739604,259100,913,701,17.5,30,15.4,2420,15,225,35,75,7,285,720,1010,890,2155,750,0,56905,80,35,85,145,245,405,260,170,550,315,275,180,160,61890
5933008,Thompson-Nicola M,Thompson-Nicola,Regional district electoral area,50.16340097,-120.3123257,250787,817,502,20.8,29.6,0,650,0,55,0,0,15.7,35,250,350,160,660,135,0,53517,25,0,35,20,95,95,80,30,85,145,85,45,50,61223
5933019,Ashcroft,Thompson-Nicola,Village,50.6962264,-121.3421602,200328,361,615,12.5,28.1,0,470,0,50,0,0,10.4,65,185,285,225,595,160,0,43839,10,0,0,80,85,100,115,70,65,100,65,35,20,47109
5933024,Cache Creek,Thompson-Nicola,Village,50.79813645,-121.3192348,179521,379,544,8.6,46.7,0,360,0,30,0,0,10.7,60,120,165,140,405,80,0,46087,0,0,30,45,45,50,80,65,55,35,20,0,25,46889
5933035,Logan Lake,Thompson-Nicola,District municipality,50.48658713,-121.0281087,224979,409,610,8,11.1,0,615,0,25,0,0,18.2,105,275,355,250,810,175,0,46876,0,20,0,20,100,260,135,55,110,80,85,75,35,48094
5933039,Thompson-Nicola J (Copper Desert Country),Thompson-Nicola,Regional district electoral area,50.80604614,-120.6997634,348969,725,1426,15.9,50,0,565,0,0,0,15,25.5,120,150,175,205,595,55,0,57367,0,0,0,15,30,125,30,90,105,45,55,70,70,62489
5933042,Kamloops,Thompson-Nicola,City,50.69420271,-120.327665,349099,1052,833,18.1,47,14.4,35080,1795,2205,495,775,15.2,4010,7820,10545,12645,25810,9215,0,56438,900,435,1290,1865,2825,3805,2680,2905,5255,3880,3665,2485,3045,62598
5933044,Thompson-Nicola P (Rivers and the Peaks),Thompson-Nicola,Regional district electoral area,50.87966902,-120.0879812,422872,845,1100,19.9,16.7,0,1485,0,85,0,20,30.2,80,385,570,500,1385,150,0,61513,20,35,15,60,135,115,165,105,290,105,260,120,95,67152
5933045,Sun Peaks Mountain,Thompson-Nicola,Village,50.88918602,-119.8959596,518293,1342,1053,33.3,40,0,115,0,55,0,0,10.7,25,70,25,55,120,55,0,45281,Null,Null,Null,Null,Null,Null,Null,25,Null,Null,Null,Null,Null,46331
5933054,Chase,Thompson-Nicola,Village,50.84384863,-119.6893537,275119,521,501,21.4,33.9,7.1,725,0,135,45,15,10.6,195,430,340,235,915,285,0,43613,0,35,25,130,155,175,105,180,205,80,40,25,35,45567
5933067,Clearwater,Thompson-Nicola,District municipality,51.644336,-120.0091111,290190,784,694,18.7,30,9.7,880,0,50,0,0,10.5,75,200,370,365,865,155,0,52059,0,40,20,50,110,165,80,80,215,100,70,15,75,56672
5933068,Thompson-Nicola A (Wells Gray Country),Thompson-Nicola,Regional district electoral area,52.13855212,-119.977185,200018,306,728,10.9,55.6,0,440,0,40,0,0,15.2,35,215,290,140,640,40,0,45627,0,15,20,15,60,95,135,55,85,90,50,20,0,48328
5933801,Coldwater 1,Thompson-Nicola,Indian reserve,50.03439373,-120.8572727,0,0,0,0,0,0,100,0,0,0,0,15.3,10,25,45,40,100,10,10,35214,Null,Null,Null,Null,Null,Null,Null,10,Null,Null,Null,Null,Null,35410
5933802,Douglas Lake 3,Thompson-Nicola,Indian reserve,50.16636484,-120.2815235,0,0,0,Null,Null,0,35,0,0,0,0,20.4,0,15,30,15,45,0,15,Null,Null,Null,Null,Null,Null,Null,Null,Null,Null,Null,Null,Null,Null,Null
5933805,Joeyaska 2,Thompson-Nicola,Indian reserve,50.09258192,-120.7570739,0,0,0,Null,Null,0,10,0,0,0,0,15.2,0,0,10,10,10,0,0,Null,Null,Null,Null,Null,Null,Null,Null,Null,Null,Null,Null,Null,Null,Null
5933806,Nicola Lake 1,Thompson-Nicola,Indian reserve,50.20897301,-120.4608014,0,0,0,Null,Null,0,45,0,0,0,0,20.4,0,20,20,10,50,10,0,Null,Null,Null,Null,Null,Null,Null,Null,Null,Null,Null,Null,Null,Null,Null
5933807,Nicola Mameet 1,Thompson-Nicola,Indian reserve,50.18614733,-120.8414809,0,0,0,0,0,0,125,0,10,0,0,15.1,15,60,85,35,95,75,25,27099,Null,Null,Null,Null,Null,Null,Null,10,Null,Null,Null,Null,Null,27698
5933808,Nooaitch 10,Thompson-Nicola,Indian reserve,50.18679809,-121.0661588,0,0,0,Null,Null,0,45,0,10,0,0,30,0,15,20,10,20,15,10,Null,Null,Null,Null,Null,Null,Null,Null,Null,Null,Null,Null,Null,Null,Null
5933809,Paul's Basin 2,Thompson-Nicola,Indian reserve,49.98788079,-120.9621865,0,0,0,Null,Null,0,0,0,0,0,0,0,0,0,0,0,10,0,0,Null,Null,Null,Null,Null,Null,Null,Null,Null,Null,Null,Null,Null,Null,Null
5933812,Bonaparte 3,Thompson-Nicola,Indian reserve,50.84009929,-121.3731928,0,0,0,Null,Null,0,40,0,0,0,0,10.5,0,10,15,25,0,0,45,Null,Null,Null,Null,Null,Null,Null,Null,Null,Null,Null,Null,Null,Null,Null
5933814,Canoe Creek 1,Thompson-Nicola,Indian reserve,51.46984042,-122.1520107,0,0,0,Null,Null,0,10,0,0,0,0,15.5,0,10,10,10,20,0,0,Null,Null,Null,Null,Null,Null,Null,Null,Null,Null,Null,Null,Null,Null,Null
5933817,Skeetchestn,Thompson-Nicola,Indian reserve,50.81923923,-120.9583955,0,0,0,0,0,0,85,0,10,0,0,10.5,0,30,45,25,85,10,10,36785,Null,Null,Null,Null,Null,Null,Null,0,Null,Null,Null,Null,Null,38008
5933825,Inklyuhkinatko 2,Thompson-Nicola,Indian reserve,50.18860446,-121.5765587,0,0,0,Null,Null,0,15,0,0,0,0,10.2,0,0,0,0,15,0,0,Null,Null,Null,Null,Null,Null,Null,Null,Null,Null,Null,Null,Null,Null,Null
5933829,Klahkamich 17,Thompson-Nicola,Indian reserve,50.22765835,-121.5767753,0,0,0,Null,Null,0,20,0,0,0,0,15.1,0,0,10,10,15,0,0,Null,Null,Null,Null,Null,Null,Null,Null,Null,Null,Null,Null,Null,Null,Null
5933832,Klickkumcheen 18,Thompson-Nicola,Indian reserve,50.23715021,-121.5748726,0,0,0,Null,Null,0,20,0,10,0,0,10.2,0,10,10,10,25,0,0,Null,Null,Null,Null,Null,Null,Null,Null,Null,Null,Null,Null,Null,Null,Null
5933833,Inkluckcheen,Thompson-Nicola,Indian reserve,50.2771375,-121.6005693,0,0,0,Null,Null,0,60,0,0,0,0,7.1,15,25,10,20,35,15,20,Null,Null,Null,Null,Null,Null,Null,Null,Null,Null,Null,Null,Null,Null,Null
5933836,Lower Hat Creek 2,Thompson-Nicola,Indian reserve,50.88225883,-121.4897823,0,0,0,Null,Null,0,15,0,0,0,0,25.5,0,0,0,10,10,0,10,Null,Null,Null,Null,Null,Null,Null,Null,Null,Null,Null,Null,Null,Null,Null
5933838,Neskonlith,Thompson-Nicola,Indian reserve,50.77080209,-119.742756,0,0,0,Null,Null,0,60,0,10,0,0,20,0,15,40,25,50,15,15,Null,Null,Null,Null,Null,Null,Null,Null,Null,Null,Null,Null,Null,Null,Null
5933844,Ashcroft 4,Thompson-Nicola,Indian reserve,50.71956181,-121.3147304,0,0,0,Null,Null,0,10,0,0,0,0,10.9,0,0,10,10,0,0,25,Null,Null,Null,Null,Null,Null,Null,Null,Null,Null,Null,Null,Null,Null,Null
5933849,Siska Flat,Thompson-Nicola,Indian reserve,50.13673057,-121.5699333,0,0,0,Null,Null,0,30,0,10,0,0,10.8,0,10,20,10,20,10,10,Null,Null,Null,Null,Null,Null,Null,Null,Null,Null,Null,Null,Null,Null,Null
5933851,Nicomen 1,Thompson-Nicola,Indian reserve,50.26357305,-121.4018307,0,0,0,Null,Null,0,0,0,15,0,0,5.7,0,0,0,10,0,0,15,Null,Null,Null,Null,Null,Null,Null,Null,Null,Null,Null,Null,Null,Null,Null
5933853,Nuuautin 2,Thompson-Nicola,Indian reserve,50.25811736,-121.5900488,0,0,0,Null,Null,0,25,0,0,0,0,10.5,0,0,15,20,30,0,0,Null,Null,Null,Null,Null,Null,Null,Null,Null,Null,Null,Null,Null,Null,Null
5933859,Shackan 11,Thompson-Nicola,Indian reserve,50.28737285,-121.1919398,0,0,0,Null,Null,0,0,0,0,0,0,30.3,0,10,10,10,25,0,0,Null,Null,Null,Null,Null,Null,Null,Null,Null,Null,Null,Null,Null,Null,Null
5933872,Marble Canyon 3,Thompson-Nicola,Indian reserve,50.81921744,-121.6648365,0,0,0,Null,Null,0,15,0,0,0,0,5.7,0,10,0,10,0,0,25,Null,Null,Null,Null,Null,Null,Null,Null,Null,Null,Null,Null,Null,Null,Null
5933873,Stryen 9,Thompson-Nicola,Indian reserve,50.28436298,-121.6338852,0,0,0,Null,Null,0,10,0,0,0,0,30.5,0,0,0,15,10,0,0,Null,Null,Null,Null,Null,Null,Null,Null,Null,Null,Null,Null,Null,Null,Null
5933877,Whispering Pines 4,Thompson-Nicola,Indian reserve,50.98549765,-120.2447822,0,0,0,Null,Null,0,30,0,0,0,0,30.1,0,0,10,0,10,10,0,Null,Null,Null,Null,Null,Null,Null,Null,Null,Null,Null,Null,Null,Null,Null
5933880,Kamloops 1,Thompson-Nicola,Indian reserve,50.72967608,-120.2571924,0,0,0,0,0,0,1080,0,30,15,0,10.8,120,295,430,280,910,185,35,56220,55,40,40,45,85,100,90,85,125,95,170,45,150,63185
5933884,Sahhaltkum 4,Thompson-Nicola,Indian reserve,50.818657,-119.7306491,0,0,0,0,0,0,80,0,10,0,0,10.1,0,15,35,50,85,10,10,34157,Null,Null,Null,Null,Null,Null,Null,10,Null,Null,Null,Null,Null,34457
5933887,North Thompson 1,Thompson-Nicola,Indian reserve,51.29147328,-120.1552362,0,0,0,Null,Null,0,80,0,10,0,0,10.9,10,25,35,35,75,0,10,Null,Null,Null,Null,Null,Null,Null,Null,Null,Null,Null,Null,Null,Null,Null
5933896,Nekliptum  1,Thompson-Nicola,Indian reserve,50.10880559,-121.5530512,0,0,0,Null,Null,0,15,0,0,0,0,10.9,0,0,0,10,0,0,10,Null,Null,Null,Null,Null,Null,Null,Null,Null,Null,Null,Null,Null,Null,Null
5935010,Kelowna,Central Okanagan,City,49.88489266,-119.4403958,415710,1064,1001,24.7,51.1,10.1,45540,2170,3020,1900,1035,15.3,5900,16520,12950,14300,35580,14090,0,52258,1010,760,1470,3100,4990,5505,4685,4135,6855,5410,4795,2760,4195,57948
5935012,Central Okanagan,Central Okanagan,Regional district electoral area,49.91696066,-119.1946762,474730,964,829,23.1,77.6,0,1585,0,120,0,30,20.4,70,345,595,530,1295,250,0,60417,115,0,30,50,90,120,130,105,290,115,180,135,165,69064
5935016,Lake Country,Central Okanagan,District municipality,50.07711701,-119.3997411,449131,1238,1038,25.1,48.5,11.1,5160,80,185,20,120,20.5,325,985,1445,1745,3680,815,0,58817,175,50,155,155,440,380,385,250,720,675,550,275,280,66676
5935018,Peachland,Central Okanagan,District municipality,49.77506112,-119.7387899,449797,858,767,27.1,41.3,31.7,1845,30,35,10,55,20.7,145,575,950,650,1995,320,0,55379,50,80,40,95,225,255,225,165,385,270,250,110,150,60590
5935020,Central Okanagan J,Central Okanagan,Regional district electoral area,49.9920594,-119.7141804,424688,971,1085,27.2,66.7,0,960,0,0,0,10,30.1,90,220,310,215,790,45,0,58265,0,30,0,15,75,75,105,90,110,85,115,25,95,64103
5935029,West Kelowna,Central Okanagan,District municipality,49.86109045,-119.6092088,448732,1072,1080,23.8,43.9,6.6,12405,395,375,130,215,16,455,2465,3780,5110,9990,1815,0,60904,275,165,330,345,755,920,1195,1035,2090,1405,1115,845,1330,68261
5935802,Tsinstikeptum  9,Central Okanagan,Indian reserve,49.83907941,-119.6054795,0,0,0,0,0,0,1835,50,90,30,35,20.2,90,1460,1020,225,2405,375,15,42231,60,55,95,265,310,450,360,240,495,260,95,60,55,44127
5935803,Tsinstikeptum 10,Central Okanagan,Indian reserve,49.88304831,-119.5368279,0,0,0,0,0,0,400,0,0,0,0,15.5,20,105,250,110,430,60,0,46211,20,0,30,0,40,85,50,50,80,55,25,0,15,52597
5937010,Coldstream,North Okanagan,District municipality,50.22758962,-119.1745864,473121,936,1005,16.3,43.8,0,4055,60,105,90,70,15.4,130,555,1180,1935,3350,445,0,69514,35,45,15,85,210,355,285,365,600,590,410,360,435,78417
5937014,Vernon,North Okanagan,City,50.23385361,-119.3466289,348871,831,828,21.7,53.3,14.2,13390,340,1260,290,355,10.9,1705,5100,5320,4295,11690,4730,0,46836,385,290,640,1235,2150,1750,1615,1365,2285,1770,1200,805,925,50644
5937017,North Okanagan B,North Okanagan,Regional district electoral area,50.31206654,-119.4973112,448828,811,708,15.2,58.3,35.4,1275,35,50,0,25,15.1,55,290,365,515,980,240,0,63529,20,25,0,45,100,90,170,80,155,175,220,70,55,71488
5937021,North Okanagan C,North Okanagan,Regional district electoral area,50.34242384,-119.1015074,500372,1064,1018,21.2,54.5,0,1470,50,55,10,65,15.3,105,170,485,660,1200,220,0,64134,45,0,0,35,120,100,100,90,250,125,185,105,210,73083
5937022,North Okanagan D,North Okanagan,Regional district electoral area,50.15819439,-118.873278,375859,594,703,20.7,40.9,0,1020,0,0,0,80,25.3,110,215,460,305,985,115,0,44308,45,20,35,85,75,175,130,40,195,110,60,40,80,46908
5937024,Spallumcheen,North Okanagan,District municipality,50.44591013,-119.2120226,449174,532,919,23.4,15.8,0,1880,0,100,0,80,15.4,60,370,705,815,1665,285,0,55375,50,35,75,70,190,270,150,125,365,280,95,120,125,60691
5937028,Armstrong,North Okanagan,City,50.44489237,-119.197835,348227,803,870,25.9,50.6,22.1,1745,20,105,95,0,15.6,160,575,695,555,1605,380,0,46581,85,15,70,155,245,190,245,175,310,195,145,110,65,50005
5937033,Enderby,North Okanagan,City,50.55500966,-119.1438812,299588,679,709,17.2,45,12.3,970,0,40,30,0,17.9,140,580,355,345,1015,400,0,39367,15,10,20,220,145,270,155,120,185,205,60,10,0,40954
5937041,North Okanagan F,North Okanagan,Regional district electoral area,50.67132581,-118.7612675,389182,559,881,20.5,50,0,1430,0,85,0,20,20.5,60,435,605,450,1270,290,0,47243,20,15,50,90,220,200,180,140,250,160,70,45,125,51141
5937801,Okanagan (Part) 1,North Okanagan,Indian reserve,50.31591605,-119.3605658,0,0,0,0,0,0,520,0,0,0,10,25.2,60,630,380,160,1085,105,45,42940,30,25,50,80,125,220,155,190,180,100,30,30,20,45656
5937802,Enderby 2,North Okanagan,Indian reserve,50.52920377,-119.1453438,0,0,0,0,0,0,95,0,0,0,0,15.5,20,50,50,25,95,25,35,29921,Null,Null,Null,Null,Null,Null,Null,15,Null,Null,Null,Null,Null,30077
5937803,Priest's Valley 6,North Okanagan,Indian reserve,50.24703833,-119.3390555,0,0,0,0,0,0,135,0,0,0,0,15.7,0,200,110,0,315,0,0,39801,0,0,0,35,0,65,65,40,55,0,0,0,0,40818
5939019,Revelstoke,Columbia-Shuswap,City,50.99708722,-118.191561,379087,898,751,19,40,10.4,2355,40,430,375,45,10.2,385,695,995,1000,2305,770,0,52607,90,0,95,175,280,330,335,270,410,385,365,190,145,57724
5939023,Columbia-Shuswap B,Columbia-Shuswap,Regional district electoral area,51.30446957,-118.151704,500480,472,743,24.4,0,0,220,0,35,0,0,12.8,0,95,75,70,215,25,0,49760,Null,Null,Null,Null,Null,Null,Null,25,Null,Null,Null,Null,Null,53283
5939032,Salmon Arm,Columbia-Shuswap,City,50.69968253,-119.284634,349207,653,765,18,50.4,21.6,6155,75,565,80,85,10.3,675,2135,2180,2355,5565,1780,0,46146,175,85,280,560,970,770,855,655,945,725,585,355,385,49334
5939037,Columbia-Shuswap C,Columbia-Shuswap,Regional district electoral area,50.85787684,-119.2701525,380072,518,933,17.8,47.8,27.5,2100,0,60,0,25,20.6,115,955,1455,880,3060,345,0,47899,120,0,80,180,345,460,485,375,560,315,225,85,155,50550
5939039,Columbia-Shuswap D,Columbia-Shuswap,Regional district electoral area,50.55949283,-119.4324805,348276,908,715,28.8,46,0,1455,0,20,0,85,20.4,115,415,580,510,1360,265,0,41025,25,80,65,110,215,130,250,125,285,150,85,55,50,44150
5939043,Columbia-Shuswap E,Columbia-Shuswap,Regional district electoral area,50.98387664,-118.7232859,399948,650,555,30.4,46.2,0,435,0,25,0,15,15.9,70,195,185,150,480,125,0,35454,0,0,60,30,115,90,50,40,90,35,25,10,0,36477
5939803,North Bay 5,Columbia-Shuswap,Indian reserve,50.78434686,-119.3228147,0,0,0,Null,Null,0,20,0,0,0,0,20.5,0,10,10,10,25,10,0,Null,Null,Null,Null,Null,Null,Null,Null,Null,Null,Null,Null,Null,Null,Null
5939804,Okanagan (Part) 1,Columbia-Shuswap,Indian reserve,50.44570048,-119.3426768,0,0,0,Null,Null,0,25,0,0,0,0,20.5,0,15,10,10,30,0,0,Null,Null,Null,Null,Null,Null,Null,Null,Null,Null,Null,Null,Null,Null,Null
5939805,Quaaout 1,Columbia-Shuswap,Indian reserve,50.88329696,-119.6046232,0,0,0,Null,Null,0,70,0,10,0,0,7.7,20,15,40,20,60,15,25,Null,Null,Null,Null,Null,Null,Null,Null,Null,Null,Null,Null,Null,Null,Null
5939806,Salmon River 1,Columbia-Shuswap,Indian reserve,50.49324039,-119.3160343,0,0,0,Null,Null,0,10,0,0,0,0,15.9,0,0,0,0,10,0,0,Null,Null,Null,Null,Null,Null,Null,Null,Null,Null,Null,Null,Null,Null,Null
5939808,Switsemalph 3,Columbia-Shuswap,Indian reserve,50.70950153,-119.3267312,0,0,0,Null,Null,0,25,0,0,0,0,10.6,0,0,10,10,15,0,0,Null,Null,Null,Null,Null,Null,Null,Null,Null,Null,Null,Null,Null,Null,Null
5939811,Switsemalph,Columbia-Shuswap,Indian reserve,50.72141556,-119.3150534,0,0,0,Null,Null,0,35,0,0,0,0,20.4,0,10,15,15,35,10,0,Null,Null,Null,Null,Null,Null,Null,Null,Null,Null,Null,Null,Null,Null,Null
5941009,Williams Lake,Cariboo,City,52.13597844,-122.1263042,224291,630,693,12.6,37.9,14.6,4205,155,340,65,80,10.3,470,1275,1380,1405,2855,1675,0,49263,125,75,255,245,510,500,350,425,600,510,465,240,230,55251
5941010,Cariboo D,Cariboo,Regional district electoral area,52.3707935,-122.1978634,200472,821,851,14.5,28,0,1310,90,25,0,35,15.3,40,275,530,395,1105,130,0,63151,15,0,25,45,70,100,65,130,215,215,180,75,90,73380
5941012,Cariboo E,Cariboo,Regional district electoral area,51.82291652,-122.1288489,229619,627,775,12.8,31.8,0,1910,55,40,0,20,15.3,40,390,500,745,1570,115,0,59686,45,45,30,95,130,115,125,140,270,270,195,105,110,70539
5941013,Quesnel,Cariboo,City,52.98769125,-122.475672,174477,556,637,14,48.2,10.7,3535,70,370,45,25,10.5,515,1085,1440,1280,2790,1535,0,45557,160,120,220,360,480,495,265,445,590,435,295,270,195,50864
5941014,Cariboo F,Cariboo,Regional district electoral area,52.47778501,-121.2030822,286338,536,672,13.5,19.4,0,1635,100,120,0,55,25,95,385,755,670,1745,160,0,53969,25,0,0,65,195,200,265,100,310,205,200,115,135,60458
5941015,Cariboo G,Cariboo,Regional district electoral area,51.7636432,-121.5530059,250285,641,717,12.8,24.4,0,1885,0,65,0,15,15.6,110,520,780,705,1900,225,0,56601,50,0,45,100,195,195,315,95,395,220,310,80,120,62841
5941016,Cariboo H,Cariboo,Regional district electoral area,51.89366259,-120.7264309,200699,409,690,20.3,70.6,0,265,0,15,0,0,20.9,100,160,355,115,640,90,0,33632,25,0,145,40,70,90,35,85,100,40,75,0,0,34011
5941017,Cariboo L,Cariboo,Regional district electoral area,51.55856799,-120.911581,274894,368,665,14.5,36.7,0,1375,0,50,0,0,15.9,90,420,835,535,1740,145,0,38593,40,0,55,165,385,300,135,195,210,165,100,65,60,38902
5941019,Cariboo A,Cariboo,Regional district electoral area,52.74666761,-122.3432497,200681,541,660,9.8,27,15.9,2475,0,110,0,15,15.1,70,640,965,860,2220,315,0,56925,0,35,100,135,195,275,220,230,310,370,320,150,165,62919
5941021,Cariboo B,Cariboo,Regional district electoral area,53.16524532,-122.6485596,200120,681,651,12.4,42.4,0,1800,0,30,0,25,15.8,70,390,680,565,1545,160,0,52552,70,40,20,110,135,195,135,160,230,165,245,140,70,59939
5941025,Wells,Cariboo,District municipality,53.10906327,-121.6283157,169127,380,669,18.2,0,0,80,0,10,0,0,5.4,15,55,35,10,55,65,0,44392,Null,Null,Null,Null,Null,Null,Null,10,Null,Null,Null,Null,Null,44904
5941026,Cariboo C,Cariboo,Regional district electoral area,53.12088782,-121.5604638,149813,526,603,4.2,37.5,0,505,0,0,0,0,15.7,25,140,140,155,370,80,0,51411,0,0,10,0,15,30,35,80,65,95,20,25,0,57182
5941027,Cariboo I,Cariboo,Regional district electoral area,53.00273914,-123.6447806,224679,452,623,18.8,0,0,640,0,0,0,0,20,70,165,175,225,555,90,0,53762,25,0,45,25,50,70,65,30,85,95,70,25,35,58378
5941039,Cariboo J,Cariboo,Regional district electoral area,52.11834267,-124.7215436,200136,218,408,21.6,30.8,0,115,0,40,0,0,15.4,85,100,95,15,230,65,0,29528,45,0,0,25,65,50,35,0,20,10,0,0,0,29528
5941801,Alkali Lake 1,Cariboo,Indian reserve,51.78907087,-122.2246537,0,0,0,0,0,0,60,0,25,0,0,10,0,35,50,25,10,10,95,30320,Null,Null,Null,Null,Null,Null,Null,0,Null,Null,Null,Null,Null,30320
5941802,Canim Lake 1,Cariboo,Indian reserve,51.7783518,-120.9816469,0,0,0,Null,Null,0,80,0,0,0,0,5.8,0,10,15,40,10,10,45,Null,Null,Null,Null,Null,Null,Null,Null,Null,Null,Null,Null,Null,Null,Null
5941805,Deep Creek 2,Cariboo,Indian reserve,52.26078325,-122.0925119,0,0,0,Null,Null,0,30,0,0,0,0,15,0,15,20,0,25,10,10,Null,Null,Null,Null,Null,Null,Null,Null,Null,Null,Null,Null,Null,Null,Null
5941806,Dog Creek 1,Cariboo,Indian reserve,51.58721371,-122.2046743,0,0,0,Null,Null,0,25,0,10,0,0,10.7,0,10,15,0,10,0,20,Null,Null,Null,Null,Null,Null,Null,Null,Null,Null,Null,Null,Null,Null,Null
5941808,Lohbiee 3,Cariboo,Indian reserve,51.46978727,-123.9357533,0,0,0,Null,Null,0,15,0,0,0,0,5.6,10,10,25,0,20,0,20,Null,Null,Null,Null,Null,Null,Null,Null,Null,Null,Null,Null,Null,Null,Null
5941809,Quesnel 1,Cariboo,Indian reserve,52.94962225,-122.474075,0,0,0,Null,Null,0,25,0,0,0,0,15.4,0,0,15,0,30,0,0,Null,Null,Null,Null,Null,Null,Null,Null,Null,Null,Null,Null,Null,Null,Null
5941812,Williams Lake 1,Cariboo,Indian reserve,52.10767864,-121.9873946,0,0,0,Null,Null,0,45,0,10,0,0,10.4,10,25,35,10,40,0,35,Null,Null,Null,Null,Null,Null,Null,Null,Null,Null,Null,Null,Null,Null,Null
5941821,Anahim's Flat 1,Cariboo,Indian reserve,52.02663458,-123.1716445,0,0,0,0,0,0,80,0,15,0,0,10.8,0,20,65,35,35,10,80,31666,Null,Null,Null,Null,Null,Null,Null,10,Null,Null,Null,Null,Null,31666
5941828,Chilco Lake 1,Cariboo,Indian reserve,51.4130572,-124.1137113,0,0,0,Null,Null,0,15,0,0,0,0,30.1,0,0,10,0,10,0,10,Null,Null,Null,Null,Null,Null,Null,Null,Null,Null,Null,Null,Null,Null,Null
5941837,Nazco 20,Cariboo,Indian reserve,52.95430749,-123.5836277,0,0,0,Null,Null,0,30,0,0,0,0,45.5,0,10,10,10,10,0,30,Null,Null,Null,Null,Null,Null,Null,Null,Null,Null,Null,Null,Null,Null,Null
5941839,Redstone Flat 1,Cariboo,Indian reserve,52.13864474,-123.9575535,0,0,0,Null,Null,0,10,0,0,0,0,6.7,10,15,30,0,25,0,25,Null,Null,Null,Null,Null,Null,Null,Null,Null,Null,Null,Null,Null,Null,Null
5941840,Squinas 2,Cariboo,Indian reserve,52.47636743,-125.2999947,0,0,0,Null,Null,0,15,0,10,0,0,6,0,15,15,10,15,0,30,Null,Null,Null,Null,Null,Null,Null,Null,Null,Null,Null,Null,Null,Null,Null
5941841,Stone 1,Cariboo,Indian reserve,51.93094701,-123.1475059,0,0,0,Null,Null,0,25,0,10,0,0,20.4,0,10,15,20,15,0,30,Null,Null,Null,Null,Null,Null,Null,Null,Null,Null,Null,Null,Null,Null,Null
5941850,Toosey 1,Cariboo,Indian reserve,51.92090831,-122.4844495,0,0,0,Null,Null,0,20,0,0,0,0,5.4,0,10,25,0,20,0,20,Null,Null,Null,Null,Null,Null,Null,Null,Null,Null,Null,Null,Null,Null,Null
5941880,Ulkatcho 14A,Cariboo,Indian reserve,52.44880077,-125.2735562,0,0,0,Null,Null,0,35,0,10,0,0,10.3,0,10,40,10,15,0,40,Null,Null,Null,Null,Null,Null,Null,Null,Null,Null,Null,Null,Null,Null,Null
5941882,Alexandria,Cariboo,Indian reserve,52.5698829,-122.4841441,0,0,0,Null,Null,0,20,0,0,0,0,45.4,0,0,10,0,10,0,10,Null,Null,Null,Null,Null,Null,Null,Null,Null,Null,Null,Null,Null,Null,Null
5943008,Alert Bay,Mount Waddington,Village,50.58315578,-126.9182644,234726,571,539,0,0,0,115,0,110,0,0,5.9,65,0,75,55,145,70,0,45380,Null,Null,Null,Null,Null,Null,Null,25,Null,Null,Null,Null,Null,48994
5943012,Port McNeill,Mount Waddington,Town,50.58813009,-127.121551,249876,1067,667,15.9,28.3,3.8,1100,0,200,70,25,6,50,245,355,375,765,265,0,60352,65,0,15,15,80,95,85,75,150,95,145,95,110,68059
5943023,Port Hardy,Mount Waddington,District municipality,50.69467863,-127.4411273,179957,859,626,14.7,29.3,12.1,1710,0,285,0,50,10.4,200,430,670,450,1260,495,0,53545,30,20,45,135,195,160,150,140,260,180,275,130,25,60247
5943027,Mount Waddington B,Mount Waddington,Regional district electoral area,50.57466754,-127.8986691,149828,473,395,Null,Null,60,20,0,15,0,0,10.1,15,0,20,0,15,20,0,Null,Null,Null,Null,Null,Null,Null,Null,Null,Null,Null,Null,Null,Null,Null
5943033,Mount Waddington D,Mount Waddington,Regional district electoral area,50.27966374,-126.5515849,120068,755,0,Null,Null,0,55,0,0,0,0,5.7,0,0,35,0,45,0,0,Null,Null,Null,Null,Null,Null,Null,Null,Null,Null,Null,Null,Null,Null,Null
5943037,Mount Waddington A,Mount Waddington,Regional district electoral area,51.17618546,-126.1623873,250652,505,559,36.5,38.9,11.1,140,15,70,0,25,10.9,80,170,150,120,425,95,0,25273,20,40,30,110,95,40,40,40,45,25,30,0,0,26630
5943804,Fort Rupert 1,Mount Waddington,Indian reserve,50.69547143,-127.4056051,0,0,0,Null,Null,0,10,0,0,0,0,15.1,0,0,10,0,15,0,0,Null,Null,Null,Null,Null,Null,Null,Null,Null,Null,Null,Null,Null,Null,Null
5943806,Tsulquate 4,Mount Waddington,Indian reserve,50.73669103,-127.4984684,0,0,0,0,0,0,55,0,35,0,0,10.2,0,25,30,50,50,10,45,33111,Null,Null,Null,Null,Null,Null,Null,10,Null,Null,Null,Null,Null,33111
5943808,Gwayasdums 1,Mount Waddington,Indian reserve,50.69444959,-126.5974043,0,0,0,Null,Null,0,0,0,15,0,0,3.4,0,10,10,0,10,0,10,Null,Null,Null,Null,Null,Null,Null,Null,Null,Null,Null,Null,Null,Null,Null
5943813,Quaee 7,Mount Waddington,Indian reserve,50.97109037,-126.1790973,0,0,0,Null,Null,0,0,0,20,0,10,5.7,0,10,10,15,20,0,10,Null,Null,Null,Null,Null,Null,Null,Null,Null,Null,Null,Null,Null,Null,Null
5943815,Kippase 2,Mount Waddington,Indian reserve,50.6936215,-127.4109494,0,0,0,Null,Null,0,55,0,10,0,0,15.7,0,15,30,25,50,15,15,Null,Null,Null,Null,Null,Null,Null,Null,Null,Null,Null,Null,Null,Null,Null
5943816,Quatsino Subdivision 18,Mount Waddington,Indian reserve,50.61540327,-127.5704615,0,0,0,Null,Null,0,50,0,15,0,0,15.1,10,10,35,25,35,20,20,Null,Null,Null,Null,Null,Null,Null,Null,Null,Null,Null,Null,Null,Null,Null
5943837,Alert Bay,Mount Waddington,Indian reserve,50.59475038,-126.9410669,0,0,0,0,0,0,105,0,40,0,10,5.6,15,60,90,50,140,15,50,25064,Null,Null,Null,Null,Null,Null,Null,10,Null,Null,Null,Null,Null,25625
5945012,Central Coast D,Central Coast,Regional district electoral area,52.3714805,-126.6471048,174896,329,660,11.5,0,0,150,0,0,0,0,10.4,0,75,55,35,145,30,0,64961,Null,Null,Null,Null,Null,Null,Null,0,Null,Null,Null,Null,Null,68436
5945801,Bella Bella 1,Central Coast,Indian reserve,52.15777256,-128.1541659,0,0,0,0,0,0,150,10,190,0,10,6,20,65,165,110,210,70,85,35665,35,20,15,25,50,45,30,45,30,25,20,0,10,35750
5945802,Bella Coola 1,Central Coast,Indian reserve,52.37788928,-126.7271483,0,0,0,0,0,0,155,0,15,0,15,5.9,25,50,110,80,195,30,30,25929,30,20,25,30,40,25,25,20,30,10,10,0,0,25929
5945803,Katit 1,Central Coast,Indian reserve,51.68264209,-127.2032921,0,0,0,Null,Null,0,10,0,10,0,0,5.6,0,0,25,0,20,10,0,Null,Null,Null,Null,Null,Null,Null,Null,Null,Null,Null,Null,Null,Null,Null
5947012,Prince Rupert,Skeena-Queen Charlotte,City,54.27827858,-130.3066048,179737,953,662,16.1,36.6,15.5,4300,200,640,80,90,7.4,585,1030,1750,1615,2980,2000,0,49253,185,140,135,340,505,555,465,340,615,545,520,290,345,54375
5947803,Masset 1,Skeena-Queen Charlotte,Indian reserve,54.03953214,-132.1780003,0,0,0,0,0,0,170,0,35,0,10,5.8,15,45,125,60,225,10,0,29835,Null,Null,Null,Null,Null,Null,Null,20,Null,Null,Null,Null,Null,29841
5947804,Skidegate 1,Skeena-Queen Charlotte,Indian reserve,53.27711631,-131.9842346,0,0,0,0,0,0,205,0,30,0,0,10.2,10,110,110,65,260,30,0,31693,35,30,10,20,45,50,25,15,25,25,10,0,10,32277
5947807,Dolphin Island 1,Skeena-Queen Charlotte,Indian reserve,53.77440635,-130.4371982,0,0,0,0,0,0,20,0,55,0,0,5.2,0,30,45,55,55,20,65,28745,Null,Null,Null,Null,Null,Null,Null,10,Null,Null,Null,Null,Null,28745
5949005,Kitimat,Kitimat-Stikine,District municipality,53.98914809,-128.7142523,134687,608,600,10.9,33.5,14.4,3355,40,180,30,55,10.6,190,515,1570,1365,2810,835,0,59874,115,110,145,125,210,250,345,320,455,480,330,365,400,65998
5949011,Terrace,Kitimat-Stikine,City,54.4782782,-128.5917823,200371,683,700,10.8,43.9,28.7,4260,65,610,205,85,10.1,365,925,1510,1730,3190,1345,0,52517,80,70,185,280,550,460,400,315,570,450,515,275,385,58592
5949013,Kitimat-Stikine C (Part 1),Kitimat-Stikine,Regional district electoral area,54.55583916,-128.6080222,200615,633,734,7.2,24.5,0,1255,0,0,0,65,16,70,335,380,315,850,245,0,51600,0,0,15,80,60,125,110,190,160,60,90,55,140,58444
5949018,Kitimat-Stikine E,Kitimat-Stikine,Regional district electoral area,54.509587,-128.5343333,145140,580,811,10.6,47.8,5.6,1740,50,40,15,30,10.7,140,535,595,415,1230,445,0,48604,90,35,75,105,155,200,110,120,200,240,145,100,100,55236
5949022,Hazelton,Kitimat-Stikine,Village,55.25791734,-127.6483324,160353,1162,748,Null,Null,0,105,0,30,0,0,10.7,0,0,45,40,55,45,0,Null,Null,Null,Null,Null,Null,Null,Null,Null,Null,Null,Null,Null,Null,Null
5949024,New Hazelton,Kitimat-Stikine,District municipality,55.23661612,-127.595115,119980,865,656,18.2,37.5,0,155,0,35,0,0,15.3,25,75,70,75,160,75,0,45309,Null,Null,Null,Null,Null,Null,Null,20,Null,Null,Null,Null,Null,50285
5949028,Kitimat-Stikine B,Kitimat-Stikine,Regional district electoral area,55.35612754,-127.8281289,150032,409,600,15.3,26.3,0,585,0,20,0,0,20.9,110,175,240,150,575,100,0,45750,25,15,60,20,55,100,100,20,120,75,45,15,20,48645
5949802,Kitasoo 1,Kitimat-Stikine,Indian reserve,52.58871757,-128.5293246,0,0,0,0,0,0,30,0,90,0,10,5.5,0,20,45,25,40,10,55,35456,Null,Null,Null,Null,Null,Null,Null,10,Null,Null,Null,Null,Null,36672
5949803,Kitamaat 2,Kitimat-Stikine,Indian reserve,53.97156868,-128.6456497,0,0,0,0,0,0,90,0,30,0,0,5.9,0,15,110,50,150,15,15,38392,Null,Null,Null,Null,Null,Null,Null,15,Null,Null,Null,Null,Null,39591
5949807,Kulspai 6,Kitimat-Stikine,Indian reserve,54.49321425,-128.5843019,0,0,0,Null,Null,0,15,0,0,0,0,11,0,0,10,10,20,0,10,Null,Null,Null,Null,Null,Null,Null,Null,Null,Null,Null,Null,Null,Null,Null
5949810,Coryatsaqua (Moricetown) 2,Kitimat-Stikine,Indian reserve,55.03942784,-127.3397525,0,0,0,Null,Null,0,35,0,0,0,0,7,0,10,15,10,20,10,10,Null,Null,Null,Null,Null,Null,Null,Null,Null,Null,Null,Null,Null,Null,Null
5949811,Hagwilget 1,Kitimat-Stikine,Indian reserve,55.25701873,-127.5997016,0,0,0,Null,Null,0,35,0,10,0,0,15.7,0,20,40,20,60,15,0,Null,Null,Null,Null,Null,Null,Null,Null,Null,Null,Null,Null,Null,Null,Null
5949812,Gitanmaax 1,Kitimat-Stikine,Indian reserve,55.27158199,-127.6772308,0,0,0,0,0,0,125,0,45,0,0,5.9,0,45,85,75,165,15,25,32261,Null,Null,Null,Null,Null,Null,Null,20,Null,Null,Null,Null,Null,33379
5949813,Kispiox 1,Kitimat-Stikine,Indian reserve,55.35191164,-127.6832403,0,0,0,0,0,0,85,0,20,0,0,15.1,10,45,80,55,125,20,45,18151,Null,Null,Null,Null,Null,Null,Null,15,Null,Null,Null,Null,Null,18151
5949816,Gitwangak 1,Kitimat-Stikine,Indian reserve,55.09548364,-128.0687388,0,0,0,0,0,0,45,0,10,0,0,5.7,0,15,95,40,70,25,60,21894,Null,Null,Null,Null,Null,Null,Null,10,Null,Null,Null,Null,Null,21894
5949817,Moricetown 1,Kitimat-Stikine,Indian reserve,55.01167499,-127.3237136,0,0,0,0,0,0,45,0,25,0,0,8.7,0,20,30,35,50,10,35,32153,Null,Null,Null,Null,Null,Null,Null,10,Null,Null,Null,Null,Null,32153
5949818,Sik-e-dakh 2,Kitimat-Stikine,Indian reserve,55.30957232,-127.6845524,0,0,0,Null,Null,0,25,0,0,0,0,15.1,0,15,35,20,45,10,15,Null,Null,Null,Null,Null,Null,Null,Null,Null,Null,Null,Null,Null,Null,Null
5949819,Babine 17,Kitimat-Stikine,Indian reserve,55.02911312,-127.3388839,0,0,0,Null,Null,0,45,0,10,0,0,10.2,0,0,15,30,30,0,10,Null,Null,Null,Null,Null,Null,Null,Null,Null,Null,Null,Null,Null,Null,Null
5949832,Iskut 6,Kitimat-Stikine,Indian reserve,57.83984455,-129.9882444,0,0,0,Null,Null,0,45,0,15,0,0,10.3,0,15,40,15,50,10,15,Null,Null,Null,Null,Null,Null,Null,Null,Null,Null,Null,Null,Null,Null,Null
5949843,Guhthe Tah 12,Kitimat-Stikine,Indian reserve,57.90360306,-131.1757109,0,0,0,Null,Null,0,25,0,15,0,0,5.8,0,15,25,10,35,0,15,Null,Null,Null,Null,Null,Null,Null,Null,Null,Null,Null,Null,Null,Null,Null
5949844,Kitselas 1,Kitimat-Stikine,Indian reserve,54.61058035,-128.4231665,0,0,0,Null,Null,0,40,0,0,0,0,20.3,0,0,55,15,55,20,0,Null,Null,Null,Null,Null,Null,Null,Null,Null,Null,Null,Null,Null,Null,Null
5949845,Dease Lake 9,Kitimat-Stikine,Indian reserve,58.47286093,-130.0263008,0,0,0,Null,Null,0,10,0,0,0,0,10.2,0,0,10,0,10,0,10,Null,Null,Null,Null,Null,Null,Null,Null,Null,Null,Null,Null,Null,Null,Null
5951007,Vanderhoof,Bulkley-Nechako,District municipality,54.01585645,-124.0262828,200132,759,649,10.7,48.3,13.6,1655,0,170,35,0,7.6,130,455,525,595,1270,435,0,57656,45,45,45,170,130,125,105,125,250,200,175,140,145,63520
5951009,Fraser Lake,Bulkley-Nechako,Village,54.05836615,-124.8516524,149771,389,682,0,34.6,15.4,475,0,45,0,0,12.1,75,35,210,145,335,130,0,63056,0,0,0,40,45,40,20,30,110,75,40,15,40,68948
5951013,Fort St. James,Bulkley-Nechako,District municipality,54.47074022,-124.2270009,159007,803,689,11.4,48.9,13.3,575,10,85,0,0,10.2,45,160,280,190,450,225,0,51579,15,0,15,75,70,55,75,45,135,60,85,10,15,55625
5951015,Bulkley-Nechako C,Bulkley-Nechako,Regional district electoral area,55.19604583,-125.0159189,199840,452,696,9.3,0,0,645,0,10,0,0,15.3,35,165,175,225,560,40,0,63223,10,0,0,30,70,30,35,40,85,65,75,80,65,69615
5951022,Burns Lake,Bulkley-Nechako,Village,54.22492735,-125.7234056,150204,884,603,15.2,29.7,35.6,650,0,160,0,0,10.5,130,180,200,260,405,370,0,46460,35,15,60,50,70,90,45,90,115,75,65,45,35,53615
5951028,Bulkley-Nechako B,Bulkley-Nechako,Regional district electoral area,54.38091831,-125.7629826,179981,704,576,9.4,36.8,31.6,880,0,30,0,0,10.9,15,150,330,270,675,95,0,53843,0,45,0,20,55,105,70,75,105,115,55,60,50,59738
5951031,Bulkley-Nechako E,Bulkley-Nechako,Regional district electoral area,53.56205584,-126.2225872,250812,375,552,9.2,50,0,455,0,0,0,0,25.8,70,110,180,250,520,80,0,54571,0,0,0,65,70,70,25,50,115,70,85,25,0,61101
5951032,Granisle,Bulkley-Nechako,Village,54.95090006,-126.2095012,79096,395,0,0,0,0,50,0,0,0,0,140,0,45,70,45,155,0,0,38520,Null,Null,Null,Null,Null,Null,Null,0,Null,Null,Null,Null,Null,38590
5951034,Houston,Bulkley-Nechako,District municipality,54.39691936,-126.6664773,149990,880,621,8.6,35.9,22.1,1320,0,80,0,80,10.4,230,320,255,455,875,385,0,61167,50,10,70,30,125,45,100,65,180,190,190,90,115,71224
5951038,Telkwa,Bulkley-Nechako,Village,54.68461645,-127.0550157,200291,1079,982,16.3,0,0,645,0,15,0,30,15.8,0,130,165,195,445,55,0,58506,0,0,0,0,30,45,50,90,90,65,35,40,50,63715
5951043,Smithers,Bulkley-Nechako,Town,54.78615098,-127.164913,250622,848,623,10.2,38.8,14.4,1990,10,410,100,75,6.3,275,535,580,805,1675,520,0,59339,35,0,30,185,305,180,125,145,330,320,265,125,135,65291
5951051,Bulkley-Nechako A,Bulkley-Nechako,Regional district electoral area,54.73673296,-127.2653102,300574,573,666,12.7,14.3,0,2350,25,60,35,60,15.1,115,350,775,775,1790,225,0,62814,10,20,0,60,285,130,185,150,335,235,270,175,165,72741
5951053,Bulkley-Nechako G,Bulkley-Nechako,Regional district electoral area,54.92408221,-127.0219804,150087,324,697,6.2,0,0,365,0,15,0,0,15.7,0,110,160,120,335,60,0,59798,0,0,25,0,55,40,25,0,35,50,95,0,40,67501
5951801,Ye Koo Che 3,Bulkley-Nechako,Indian reserve,54.6001595,-125.0712285,0,0,0,Null,Null,0,10,0,10,0,0,5.5,0,0,15,0,10,0,15,Null,Null,Null,Null,Null,Null,Null,Null,Null,Null,Null,Null,Null,Null,Null
5951802,Nautley (Fort Fraser) 1,Bulkley-Nechako,Indian reserve,54.07956877,-124.5972403,0,0,0,Null,Null,0,15,0,0,0,0,15.3,10,15,30,15,10,10,55,Null,Null,Null,Null,Null,Null,Null,Null,Null,Null,Null,Null,Null,Null,Null
5951803,Nak'azdli (Necoslie 1),Bulkley-Nechako,Indian reserve,54.43126622,-124.246711,0,0,0,0,0,0,125,0,35,10,10,10.4,10,50,75,45,115,15,55,31374,Null,Null,Null,Null,Null,Null,Null,15,Null,Null,Null,Null,Null,31449
5951805,Binche 2 (Pinchie 2),Bulkley-Nechako,Indian reserve,54.57016689,-124.5022374,0,0,0,Null,Null,0,25,0,0,0,0,20.7,0,0,20,10,10,0,20,Null,Null,Null,Null,Null,Null,Null,Null,Null,Null,Null,Null,Null,Null,Null
5951807,Stellaquo (Stella) 1,Bulkley-Nechako,Indian reserve,54.05157866,-124.9092714,0,0,0,Null,Null,0,65,0,15,0,0,10.8,0,10,40,15,25,0,35,Null,Null,Null,Null,Null,Null,Null,Null,Null,Null,Null,Null,Null,Null,Null
5951809,Stony Creek 1,Bulkley-Nechako,Indian reserve,53.94238676,-124.1171508,0,0,0,0,0,0,65,0,10,0,10,15.3,20,25,65,30,70,30,40,16095,Null,Null,Null,Null,Null,Null,Null,10,Null,Null,Null,Null,Null,16095
5951810,Tache 1,Bulkley-Nechako,Indian reserve,54.66180908,-124.7443111,0,0,0,0,0,0,45,0,40,0,0,10.2,0,25,65,30,45,15,70,25977,Null,Null,Null,Null,Null,Null,Null,10,Null,Null,Null,Null,Null,26358
5951815,Burns Lake 18,Bulkley-Nechako,Indian reserve,54.23499152,-125.7680414,0,0,0,Null,Null,0,20,0,0,0,0,5.9,0,10,0,10,0,0,10,Null,Null,Null,Null,Null,Null,Null,Null,Null,Null,Null,Null,Null,Null,Null
5951818,Cheslatta 1,Bulkley-Nechako,Indian reserve,53.94118038,-125.7811817,0,0,0,Null,Null,0,10,0,0,0,0,0,0,10,10,0,0,0,30,Null,Null,Null,Null,Null,Null,Null,Null,Null,Null,Null,Null,Null,Null,Null
5951827,Woyenne 27,Bulkley-Nechako,Indian reserve,54.23874589,-125.7618956,0,0,0,0,0,0,40,0,0,0,0,15.1,0,10,15,50,15,10,50,35906,Null,Null,Null,Null,Null,Null,Null,0,Null,Null,Null,Null,Null,35906
5951828,Babine  6,Bulkley-Nechako,Indian reserve,55.32342781,-126.6213965,0,0,0,Null,Null,0,0,0,10,0,0,5.2,0,0,10,15,0,0,30,Null,Null,Null,Null,Null,Null,Null,Null,Null,Null,Null,Null,Null,Null,Null
5951829,Babine 25,Bulkley-Nechako,Indian reserve,54.81682517,-126.1488501,0,0,0,Null,Null,0,10,0,0,0,0,0,0,0,0,20,0,0,25,Null,Null,Null,Null,Null,Null,Null,Null,Null,Null,Null,Null,Null,Null,Null
5951848,North Tacla Lake,Bulkley-Nechako,Indian reserve,55.48091863,-125.967257,0,0,0,Null,Null,0,40,0,15,0,0,5.8,0,0,25,20,20,0,30,Null,Null,Null,Null,Null,Null,Null,Null,Null,Null,Null,Null,Null,Null,Null
5953007,Valemount,Fraser-Fort George,Village,52.8283813,-119.2658732,179376,673,673,12.9,42.3,16,315,15,65,20,0,10.2,40,175,200,60,350,130,0,41869,0,0,10,65,50,80,55,45,40,80,40,0,0,45489
5953012,McBride,Fraser-Fort George,Village,53.30669741,-120.1668491,149949,505,605,30.6,42.9,0,100,0,80,0,0,5.9,55,75,80,40,180,70,0,29278,0,0,40,55,0,35,25,0,40,20,0,0,0,31120
5953019,Fraser-Fort George H,Fraser-Fort George,Regional district electoral area,53.11504788,-119.7069869,174999,360,748,9.1,0,0,580,0,75,0,0,10.6,85,195,295,120,625,70,0,43427,40,0,0,50,40,125,140,90,70,60,45,0,25,45034
5953023,Prince George,Fraser-Fort George,City,53.9238281,-122.7757233,229925,986,749,14.6,43.8,12.6,31200,925,1475,410,590,15.1,2390,6180,9710,10985,20425,8840,0,56761,750,560,1060,1670,2655,2340,2455,2200,4475,3515,3010,1910,2655,63653
5953033,Mackenzie,Fraser-Fort George,District municipality,55.31409774,-123.1472527,125269,765,701,12.4,29.6,8.5,1530,0,245,15,25,10.3,190,240,575,565,1210,355,0,51517,25,0,20,75,175,215,110,205,175,165,230,100,45,57094
5953038,Fraser-Fort George A,Fraser-Fort George,Regional district electoral area,54.05954241,-123.0866931,250861,845,767,15.2,0,0,1505,15,0,0,0,30.1,30,270,520,425,1195,50,0,69621,60,0,35,40,65,100,35,85,175,230,130,165,95,80982
5953042,Fraser-Fort George C,Fraser-Fort George,Regional district electoral area,53.62262178,-123.0619647,300232,1083,276,8.7,0,0,1615,0,0,0,25,20.9,45,170,480,570,1235,35,0,73865,0,0,0,15,25,65,85,55,250,305,155,80,190,85884
5953044,Fraser-Fort George D,Fraser-Fort George,Regional district electoral area,53.73985278,-122.5512758,250664,969,604,14.5,52.9,0,1805,25,0,0,50,20.4,50,395,640,555,1550,90,0,62009,110,0,40,35,100,90,80,140,345,230,145,150,170,70900
5953048,Fraser-Fort George F,Fraser-Fort George,Regional district electoral area,53.98422756,-121.4913906,224636,695,602,14.6,0,0,495,0,0,0,0,20.6,65,125,195,165,480,70,0,44233,15,0,15,40,45,65,105,55,70,65,20,35,0,48658
5953802,McLeod Lake 1,Fraser-Fort George,Indian reserve,54.9624157,-123.0524577,0,0,0,Null,Null,0,20,0,10,0,0,5.9,0,10,25,0,10,0,30,Null,Null,Null,Null,Null,Null,Null,Null,Null,Null,Null,Null,Null,Null,Null
5955003,Tumbler Ridge,Peace River,District municipality,55.05831402,-121.1584069,200271,1069,1002,9.6,23.6,11.1,960,325,135,0,0,20.9,140,190,440,375,785,360,0,71794,10,0,0,30,110,70,65,105,130,230,140,100,135,85808
5955010,Chetwynd,Peace River,District municipality,55.69175287,-121.7698058,214510,1009,785,9,22.1,0,1185,45,120,0,10,10.2,95,265,360,335,665,390,0,67118,15,0,0,20,45,95,60,115,130,180,135,75,115,78110
5955014,Dawson Creek,Peace River,City,55.75521834,-120.2261963,249891,1015,849,16.8,39.1,18.9,5235,55,495,75,50,10,775,1415,1345,1330,3110,1745,0,52997,160,115,200,280,445,415,405,435,590,605,410,330,465,58416
5955021,Peace River D,Peace River,Regional district electoral area,55.05277945,-120.4201303,299480,935,1198,13,33.3,0,2020,30,40,0,50,20.1,110,435,805,675,1845,185,0,69517,30,45,0,60,190,175,165,65,310,270,190,265,260,74948
5955025,Hudson's Hope,Peace River,District municipality,56.0235818,-122.0068465,249995,342,801,11.7,66.7,0,420,0,60,0,0,5.9,40,140,125,120,310,115,0,56999,0,0,0,75,45,20,45,0,35,50,40,40,50,60583
5955030,Taylor,Peace River,District municipality,56.15561459,-120.6789584,210658,1136,887,15.3,60.9,0,675,0,25,0,0,20,30,145,275,95,425,115,0,70533,0,0,0,30,45,50,35,10,70,70,115,45,40,80614
5955034,Fort St. John,Peace River,City,56.24243965,-120.8291055,292071,1344,936,19.2,35.8,9.8,9320,35,930,65,85,10.2,960,1875,2350,2290,4535,2945,0,70707,285,120,140,340,420,555,455,570,755,890,1020,730,1205,81298
5955040,Peace River B,Peace River,Regional district electoral area,57.0765926,-123.5168771,329811,1243,550,15.6,0,0,1685,0,55,0,60,26.7,30,300,615,650,1465,130,0,76830,35,0,0,0,75,65,110,105,310,185,290,140,265,88610
5955042,Peace River C,Peace River,Regional district electoral area,56.23604688,-120.7830464,360310,1033,1109,14,34,0,2945,15,125,0,20,10.8,130,430,1020,760,2090,250,0,81461,100,45,0,60,70,75,100,155,260,410,325,210,510,94017
5955801,East Moberly Lake 169,Peace River,Indian reserve,55.84417901,-121.6370378,0,0,0,0,0,0,100,0,0,0,0,30.6,10,25,45,25,55,20,30,42803,Null,Null,Null,Null,Null,Null,Null,0,Null,Null,Null,Null,Null,44851
5955802,West Moberly Lake 168A,Peace River,Indian reserve,55.80619748,-121.8982135,0,0,0,Null,Null,0,20,0,0,0,0,10.8,0,10,10,0,15,10,10,Null,Null,Null,Null,Null,Null,Null,Null,Null,Null,Null,Null,Null,Null,Null
5955803,Blueberry River 205,Peace River,Indian reserve,56.70413283,-121.0916041,0,0,0,Null,Null,0,35,0,10,0,0,15.5,10,10,30,15,15,15,40,Null,Null,Null,Null,Null,Null,Null,Null,Null,Null,Null,Null,Null,Null,Null
5955807,Fort Ware 1,Peace River,Indian reserve,57.42749972,-125.631118,0,0,0,0,0,0,35,0,25,0,0,10.4,10,35,25,10,10,25,40,23896,Null,Null,Null,Null,Null,Null,Null,0,Null,Null,Null,Null,Null,23896
5955808,Halfway River 168,Peace River,Indian reserve,56.47912104,-121.8685484,0,0,0,Null,Null,0,45,0,10,0,0,10.7,0,25,15,15,10,10,35,Null,Null,Null,Null,Null,Null,Null,Null,Null,Null,Null,Null,Null,Null,Null
5955812,Ingenika Point,Peace River,Indian settlement,56.79625085,-124.9081469,0,0,0,Null,Null,0,25,0,10,0,0,6,0,10,15,0,10,0,15,Null,Null,Null,Null,Null,Null,Null,Null,Null,Null,Null,Null,Null,Null,Null
5957803,Five Mile Point  3,Stikine,Indian reserve,59.4895194,-133.6421882,0,0,0,Null,Null,0,20,0,0,0,0,10.5,0,15,10,0,10,10,10,Null,Null,Null,Null,Null,Null,Null,Null,Null,Null,Null,Null,Null,Null,Null
5957813,Lower Post,Stikine,Indian settlement,59.92538046,-128.4923564,0,0,0,Null,Null,0,20,0,15,0,0,5.5,10,15,0,0,0,0,30,Null,Null,Null,Null,Null,Null,Null,Null,Null,Null,Null,Null,Null,Null,Null
5957814,Liard River 3,Stikine,Indian reserve,59.93049399,-128.4953198,0,0,0,Null,Null,0,15,0,0,0,0,7.7,0,15,0,0,10,0,15,Null,Null,Null,Null,Null,Null,Null,Null,Null,Null,Null,Null,Null,Null,Null
5959007,Northern Rockies,Northern Rockies,Regional municipality,59.08032616,-123.433432,250359,1153,851,7.5,19.2,3.8,2515,0,250,40,60,10.1,235,490,650,620,1470,520,0,75361,35,0,0,75,90,170,140,115,290,250,250,195,365,86470
5959806,Fort Nelson 2,Northern Rockies,Indian reserve,58.78682905,-122.5509662,0,0,0,0,0,0,120,0,10,0,0,10.6,0,35,60,45,115,10,15,45038,Null,Null,Null,Null,Null,Null,Null,10,Null,Null,Null,Null,Null,45298
5959810,Prophet River 4,Northern Rockies,Indian reserve,58.09331259,-122.7102353,0,0,0,Null,Null,0,30,0,15,0,0,5.9,15,10,15,10,10,0,30,Null,Null,Null,Null,Null,Null,Null,Null,Null,Null,Null,Null,Null,Null,Null